{"type":"FeatureCollection","features":[{"type": "Feature", "geometry": {"coordinates": [-1.359565219545318, -5.980247978960476], "type": "Point"}, "properties": {"geo_point_2d": [-5.980247978960476, -1.3595652195453176], "y": 546.46804562, "id_ref_zdl": 46725, "indice_lig": "B", "x": 595.44514878, "idrefliga": "A01857", "nom_gare": "VILLEPARISIS-MITRY-LE-NEUF", "mode": "RER", "gares_id": 904, "res_com": "RER B", "ligne_code": "RER B-8", "nom_iv": "Villeparisis-Mitry-le-Neuf"}},{"type": "Feature", "geometry": {"coordinates": [-1.360337783342175, -5.980078032374426], "type": "Point"}, "properties": {"geo_point_2d": [-5.9800780323744265, -1.360337783342175], "y": 580.51601099, "id_ref_zdl": 47968, "indice_lig": "D", "x": 473.13249029, "idrefliga": "A01842", "nom_gare": "LES NOUES", "mode": "RER", "gares_id": 452, "res_com": "RER D", "ligne_code": "RER D-258", "nom_iv": "Les Noues"}},{"type": "Feature", "geometry": {"coordinates": [-1.360341772141523, -5.980004861601863], "type": "Point"}, "properties": {"geo_point_2d": [-5.980004861601863, -1.3603417721415227], "y": 592.26408262, "id_ref_zdl": 44628, "indice_lig": "D", "x": 473.14077815, "idrefliga": "A01842", "nom_gare": "LOUVRES", "mode": "RER", "gares_id": 482, "res_com": "RER D", "ligne_code": "RER D-259", "nom_iv": "Louvres"}},{"type": "Feature", "geometry": {"coordinates": [-1.360367750837951, -5.979816704106395], "type": "Point"}, "properties": {"geo_point_2d": [-5.979816704106395, -1.3603677508379513], "y": 622.61368386, "id_ref_zdl": 411418, "indice_lig": "D", "x": 470.64215823, "idrefliga": "A01842", "nom_gare": "LA BORNE BLANCHE", "mode": "RER", "gares_id": 958, "res_com": "RER D", "ligne_code": "RER D-455", "nom_iv": "La Borne Blanche"}},{"type": "Feature", "geometry": {"coordinates": [-1.360043488093873, -5.98201506544179], "type": "Point"}, "properties": {"geo_point_2d": [-5.98201506544179, -1.3600434880938725], "y": 267.83157018, "id_ref_zdl": 47886, "indice_lig": "A", "x": 503.1594513, "idrefliga": "A01856", "nom_gare": "NOGENT-SUR-MARNE", "mode": "RER", "gares_id": 594, "res_com": "RER A", "ligne_code": "RER A-343", "nom_iv": "Nogent-sur-Marne"}},{"type": "Feature", "geometry": {"coordinates": [-1.359108177294032, -5.982183216136201], "type": "Point"}, "properties": {"geo_point_2d": [-5.982183216136201, -1.3591081772940317], "y": 232.62923355, "id_ref_zdl": 47942, "indice_lig": "P", "x": 651.57445316, "idrefliga": "A01844", "nom_gare": "MORTCERF", "mode": "TRAIN", "gares_id": 570, "res_com": "TRAIN P", "ligne_code": "TRAIN P-27", "nom_iv": "Mortcerf"}},{"type": "Feature", "geometry": {"coordinates": [-1.361571970690201, -5.983285643801606], "type": "Point"}, "properties": {"geo_point_2d": [-5.983285643801606, -1.3615719706902005], "y": 77.97738152, "id_ref_zdl": 43232, "indice_lig": "B", "x": 246.94268578, "idrefliga": "A01857", "nom_gare": "LE GUICHET", "mode": "RER", "gares_id": 429, "res_com": "RER B", "ligne_code": "RER B-175", "nom_iv": "Le Guichet"}},{"type": "Feature", "geometry": {"coordinates": [-1.362051125263443, -5.980779552031784], "type": "Point"}, "properties": {"geo_point_2d": [-5.980779552031784, -1.3620511252634429], "y": 483.40028915, "id_ref_zdl": 43236, "indice_lig": "J", "x": 192.33187826, "idrefliga": "A01852", "nom_gare": "LE STADE", "mode": "TRAIN", "gares_id": 435, "res_com": "TRAIN J", "ligne_code": "TRAIN J-397", "nom_iv": "Le Stade"}},{"type": "Feature", "geometry": {"coordinates": [-1.362231060684394, -5.980684432416779], "type": "Point"}, "properties": {"geo_point_2d": [-5.980684432416779, -1.3622310606843944], "y": 500.22147574, "id_ref_zdl": 43212, "indice_lig": "J", "x": 164.33597643, "idrefliga": "A01852", "nom_gare": "VAL D'ARGENTEUIL", "mode": "TRAIN", "gares_id": 867, "res_com": "TRAIN J", "ligne_code": "TRAIN J-220", "nom_iv": "Val d'Argenteuil"}},{"type": "Feature", "geometry": {"coordinates": [-1.359112619636551, -5.982102773919427], "type": "Point"}, "properties": {"geo_point_2d": [-5.982102773919427, -1.3591126196365508], "y": 245.5458337, "id_ref_zdl": 47205, "indice_lig": "P", "x": 651.57417818, "idrefliga": "A01844", "nom_gare": "GUERARD-LA-CELLE-SUR-MORIN", "mode": "TRAIN", "gares_id": 340, "res_com": "TRAIN P", "ligne_code": "TRAIN P-28", "nom_iv": "Guerard-la-Celle-sur-Morin"}},{"type": "Feature", "geometry": {"coordinates": [-1.362727116445008, -5.981168770005959], "type": "Point"}, "properties": {"geo_point_2d": [-5.981168770005959, -1.362727116445008], "y": 427.08646704, "id_ref_zdl": 47874, "terminus": "RER A", "indice_lig": "A", "x": 80.54627346, "idrefliga": "A01856", "nom_gare": "POISSY", "mode": "RER", "gares_id": 660, "res_com": "RER A", "ligne_code": "RER A-136", "nom_iv": "Poissy"}},{"type": "Feature", "geometry": {"coordinates": [-1.362073073426661, -5.982266217704145], "type": "Point"}, "properties": {"geo_point_2d": [-5.9822662177041455, -1.3620730734266606], "y": 245.61043803, "id_ref_zdl": 47770, "indice_lig": "L", "x": 175.65386091, "idrefliga": "A02176", "nom_gare": "GARCHES-MARNES-LA-COQUETTE", "mode": "TRAIN", "gares_id": 304, "res_com": "TRAIN L", "ligne_code": "TRAIN L-380", "nom_iv": "Garches-Marnes-la-Coquette"}},{"type": "Feature", "geometry": {"coordinates": [-1.361424081251966, -5.980802538291102], "type": "Point"}, "properties": {"geo_point_2d": [-5.980802538291102, -1.3614240812519662], "y": 474.16385522, "id_ref_zdl": 43130, "indice_lig": "C", "x": 292.62310303, "idrefliga": "A01840", "nom_gare": "GENNEVILLIERS", "mode": "RER", "gares_id": 326, "res_com": "RER C", "ligne_code": "RER C-428", "nom_iv": "Gennevilliers"}},{"type": "Feature", "geometry": {"coordinates": [-1.361255555303506, -5.98058670754734], "type": "Point"}, "properties": {"geo_point_2d": [-5.98058670754734, -1.3612555553035057], "y": 507.22033005, "id_ref_zdl": 43078, "indice_lig": "H", "x": 321.54269752, "idrefliga": "A01849", "nom_gare": "EPINAY-VILLETANEUSE", "mode": "TRAIN", "gares_id": 259, "res_com": "TRAIN H", "ligne_code": "TRAIN H-427", "nom_iv": "Epinay-Villetaneuse"}},{"type": "Feature", "geometry": {"coordinates": [-1.361313740545405, -5.980103739843344], "type": "Point"}, "properties": {"geo_point_2d": [-5.980103739843344, -1.3613137405454054], "y": 585.04779053, "id_ref_zdl": 47946, "indice_lig": "H", "x": 316.49199862, "idrefliga": "A01849", "nom_gare": "PRESLES-COURCELLES", "mode": "TRAIN", "gares_id": 710, "res_com": "TRAIN H", "ligne_code": "TRAIN H-268", "nom_iv": "Presles-Courcelles"}},{"type": "Feature", "geometry": {"coordinates": [-1.362925260570238, -5.980800924367354], "type": "Point"}, "properties": {"geo_point_2d": [-5.980800924367354, -1.3629252605702376], "y": 487.7270211, "id_ref_zdl": 43160, "indice_lig": "J", "x": 52.04702368, "idrefliga": "A01852", "nom_gare": "MAURECOURT", "mode": "TRAIN", "gares_id": 527, "res_com": "TRAIN J", "ligne_code": "TRAIN J-126", "nom_iv": "Maurecourt"}},{"type": "Feature", "geometry": {"coordinates": [-1.362935912767918, -5.980891211811812], "type": "Point"}, "properties": {"geo_point_2d": [-5.980891211811812, -1.3629359127679184], "y": 473.36826071, "id_ref_zdl": 47916, "indice_lig": "J", "x": 49.54033737, "idrefliga": "A01852", "nom_gare": "ANDRESY", "mode": "TRAIN", "gares_id": 17, "res_com": "TRAIN J", "ligne_code": "TRAIN J-125", "nom_iv": "Andresy"}},{"type": "Feature", "geometry": {"coordinates": [-1.362916579406515, -5.981240927251096], "type": "Point"}, "properties": {"geo_point_2d": [-5.981240927251096, -1.3629165794065152], "y": 417.21518524, "id_ref_zdl": 46902, "indice_lig": "J", "x": 49.54252884, "idrefliga": "A01852", "nom_gare": "THUN-LE-PARADIS", "mode": "TRAIN", "gares_id": 854, "res_com": "TRAIN J", "ligne_code": "TRAIN J-121", "nom_iv": "Thun-le-Paradis"}},{"type": "Feature", "geometry": {"coordinates": [-1.362911548394175, -5.981331927602292], "type": "Point"}, "properties": {"geo_point_2d": [-5.981331927602292, -1.3629115483941752], "y": 402.60329809, "id_ref_zdl": 46897, "indice_lig": "J", "x": 49.5430739, "idrefliga": "A01852", "nom_gare": "MEULAN-HARDRICOURT", "mode": "TRAIN", "gares_id": 541, "res_com": "TRAIN J", "ligne_code": "TRAIN J-120", "nom_iv": "Meulan-Hardricourt"}},{"type": "Feature", "geometry": {"coordinates": [-1.362901826764564, -5.981507794444264], "type": "Point"}, "properties": {"geo_point_2d": [-5.981507794444264, -1.3629018267645643], "y": 374.36447635, "id_ref_zdl": 43129, "indice_lig": "J", "x": 49.54426943, "idrefliga": "A01852", "nom_gare": "GARGENVILLE", "mode": "TRAIN", "gares_id": 321, "res_com": "TRAIN J", "ligne_code": "TRAIN J-118", "nom_iv": "Gargenville"}},{"type": "Feature", "geometry": {"coordinates": [-1.362892140706861, -5.981683010817628], "type": "Point"}, "properties": {"geo_point_2d": [-5.981683010817628, -1.3628921407068615], "y": 346.23017255, "id_ref_zdl": 43151, "indice_lig": "J", "x": 49.54524182, "idrefliga": "A01852", "nom_gare": "LIMAY", "mode": "TRAIN", "gares_id": 469, "res_com": "TRAIN J", "ligne_code": "TRAIN J-116", "nom_iv": "Limay"}},{"type": "Feature", "geometry": {"coordinates": [-1.360954759610799, -5.98007160177236], "type": "Point"}, "properties": {"geo_point_2d": [-5.98007160177236, -1.360954759610799], "y": 587.01241844, "id_ref_zdl": 47525, "indice_lig": "H", "x": 374.52731974, "idrefliga": "A01849", "nom_gare": "VIARMES", "mode": "TRAIN", "gares_id": 890, "res_com": "TRAIN H", "ligne_code": "TRAIN H-265", "nom_iv": "Viarmes"}},{"type": "Feature", "geometry": {"coordinates": [-1.360520503536416, -5.980792754339334], "type": "Point"}, "properties": {"geo_point_2d": [-5.980792754339334, -1.3605205035364163], "y": 467.72424223, "id_ref_zdl": 43140, "indice_lig": "B", "x": 437.52409602, "idrefliga": "A01857", "nom_gare": "LA COURNEUVE-AUBERVILLIERS", "mode": "RER", "gares_id": 34, "res_com": "RER B", "ligne_code": "RER B-401", "nom_iv": "La Courneuve-Aubervilliers"}},{"type": "Feature", "geometry": {"coordinates": [-1.361129771318714, -5.982415714620865], "type": "Point"}, "properties": {"geo_point_2d": [-5.982415714620865, -1.3611297713187143], "y": 213.31944933, "id_ref_zdl": 43214, "indice_lig": "N", "x": 325.51457909, "idrefliga": "A01847", "nom_gare": "VANVES-MALAKOFF", "mode": "TRAIN", "gares_id": 872, "res_com": "TRAIN N", "ligne_code": "TRAIN N-286", "nom_iv": "Vanves-Malakoff"}},{"type": "Feature", "geometry": {"coordinates": [-1.361249953819046, -5.982925710916743], "type": "Point"}, "properties": {"geo_point_2d": [-5.982925710916743, -1.3612499538190457], "y": 132.74289255, "id_ref_zdl": 43124, "indice_lig": "B", "x": 301.73890622, "idrefliga": "A01857", "nom_gare": "FONTAINE-MICHALON", "mode": "RER", "gares_id": 286, "res_com": "RER B", "ligne_code": "RER B-302", "nom_iv": "Fontaine-Michalon"}},{"type": "Feature", "geometry": {"coordinates": [-1.361829086116064, -5.982781250180189], "type": "Point"}, "properties": {"geo_point_2d": [-5.982781250180189, -1.3618290861160642], "y": 161.00065203, "id_ref_zdl": 47883, "indice_lig": "C", "x": 210.19899264, "idrefliga": "A01840", "nom_gare": "CHAVILLE-VELIZY", "mode": "RER", "gares_id": 177, "res_com": "RER C", "ligne_code": "RER C-72", "nom_iv": "Chaville-Velizy"}},{"type": "Feature", "geometry": {"coordinates": [-1.36091351157696, -5.980981448198738], "type": "Point"}, "properties": {"geo_point_2d": [-5.980981448198738, -1.3609135115769597], "y": 441.00035226, "id_ref_zdl": 43145, "indice_lig": "B", "x": 372.86775962, "idrefliga": "A01857", "nom_gare": "LA PLAINE-STADE DE FRANCE", "mode": "RER", "gares_id": 404, "res_com": "RER B", "ligne_code": "RER B-400", "nom_iv": "La Plaine-Stade de France"}},{"type": "Feature", "geometry": {"coordinates": [-1.360228776844016, -5.980652686963519], "type": "Point"}, "properties": {"geo_point_2d": [-5.980652686963519, -1.3602287768440156], "y": 487.56134086, "id_ref_zdl": 43122, "indice_lig": "B", "x": 485.51799138, "idrefliga": "A01857", "nom_gare": "DRANCY", "mode": "RER", "gares_id": 242, "res_com": "RER B", "ligne_code": "RER B-403", "nom_iv": "Drancy"}},{"type": "Feature", "geometry": {"coordinates": [-1.360132332727292, -5.980606382174104], "type": "Point"}, "properties": {"geo_point_2d": [-5.980606382174104, -1.3601323327272918], "y": 494.119314, "id_ref_zdl": 46163, "indice_lig": "B", "x": 501.38456118, "idrefliga": "A01857", "nom_gare": "LE BLANC-MESNIL", "mode": "RER", "gares_id": 77, "res_com": "RER B", "ligne_code": "RER B-404", "nom_iv": "Le Blanc-Mesnil"}},{"type": "Feature", "geometry": {"coordinates": [-1.360490718969449, -5.983016677137866], "type": "Point"}, "properties": {"geo_point_2d": [-5.983016677137866, -1.3604907189694493], "y": 111.45378527, "id_ref_zdl": 46387, "indice_lig": "C", "x": 422.6181485, "idrefliga": "A01840", "nom_gare": "ABLON", "mode": "RER", "gares_id": 3, "res_com": "RER C", "ligne_code": "RER C-425", "nom_iv": "Ablon"}},{"type": "Feature", "geometry": {"coordinates": [-1.359338862380069, -5.982227718396427], "type": "Point"}, "properties": {"geo_point_2d": [-5.982227718396427, -1.3593388623800693], "y": 227.54844833, "id_ref_zdl": 43131, "indice_lig": "E", "x": 614.20867084, "idrefliga": "A01843", "nom_gare": "GRETZ-ARMAINVILLIERS", "mode": "RER", "gares_id": 966, "res_com": "RER E", "ligne_code": "RER E-12", "nom_iv": "Gretz-Armainvilliers"}},{"type": "Feature", "geometry": {"coordinates": [-1.360952493929068, -5.981971808036926], "type": "Point"}, "properties": {"geo_point_2d": [-5.981971808036926, -1.3609524939290685], "y": 282.8096276, "id_ref_zdl": 43833, "indice_lig": "B", "x": 357.85555124, "idrefliga": "A01857", "nom_gare": "LUXEMBOURG", "mode": "RER", "gares_id": 484, "res_com": "RER B", "ligne_code": "RER B-296", "nom_iv": "Luxembourg"}},{"type": "Feature", "geometry": {"coordinates": [-1.361528072696607, -5.982736599354332], "type": "Point"}, "properties": {"geo_point_2d": [-5.9827365993543316, -1.361528072696607], "y": 165.48104569, "id_ref_zdl": 43163, "indice_lig": "C", "x": 258.83827111, "idrefliga": "A01840", "nom_gare": "MEUDON-VAL-FLEURY", "mode": "RER", "gares_id": 540, "res_com": "RER C", "ligne_code": "RER C-319", "nom_iv": "Meudon-Val-Fleury"}},{"type": "Feature", "geometry": {"coordinates": [-1.361750711016333, -5.981072661760199], "type": "Point"}, "properties": {"geo_point_2d": [-5.981072661760199, -1.3617507110163332], "y": 433.81759347, "id_ref_zdl": 43112, "indice_lig": "L", "x": 237.88396582, "idrefliga": "A02176", "nom_gare": "CLICHY-LEVALLOIS", "mode": "TRAIN", "gares_id": 191, "res_com": "TRAIN L", "ligne_code": "TRAIN L-399", "nom_iv": "Clichy-Levallois"}},{"type": "Feature", "geometry": {"coordinates": [-1.361015623010912, -5.982663712309804], "type": "Point"}, "properties": {"geo_point_2d": [-5.982663712309804, -1.361015623010912], "y": 172.60799434, "id_ref_zdl": 43097, "indice_lig": "B", "x": 341.61441817, "idrefliga": "A01857", "nom_gare": "BOURG-LA-REINE", "mode": "RER", "gares_id": 102, "res_com": "RER B", "ligne_code": "RER B-298", "nom_iv": "Bourg-la-Reine"}},{"type": "Feature", "geometry": {"coordinates": [-1.36094370819036, -5.982131046467742], "type": "Point"}, "properties": {"geo_point_2d": [-5.982131046467742, -1.3609437081903597], "y": 257.24070008, "id_ref_zdl": 42835, "indice_lig": "B", "x": 357.85445477, "idrefliga": "A01857", "nom_gare": "DENFERT-ROCHEREAU", "mode": "RER", "gares_id": 235, "res_com": "RER B", "ligne_code": "RER B-297", "nom_iv": "Denfert-Rochereau"}},{"type": "Feature", "geometry": {"coordinates": [-1.360974301295093, -5.982616520957818], "type": "Point"}, "properties": {"geo_point_2d": [-5.982616520957818, -1.3609743012950928], "y": 179.79637107, "id_ref_zdl": 45960, "indice_lig": "B", "x": 348.65469902, "idrefliga": "A01857", "nom_gare": "BAGNEUX", "mode": "RER", "gares_id": 45, "res_com": "RER B", "ligne_code": "RER B-310", "nom_iv": "Bagneux"}},{"type": "Feature", "geometry": {"coordinates": [-1.362040037538782, -5.980329347131422], "type": "Point"}, "properties": {"geo_point_2d": [-5.980329347131422, -1.3620400375387818], "y": 555.36959391, "id_ref_zdl": 43166, "indice_lig": "C", "x": 198.09385531, "idrefliga": "A01840", "nom_gare": "MONTIGNY-BEAUCHAMP", "mode": "RER", "gares_id": 559, "res_com": "RER C", "ligne_code": "RER C-230", "nom_iv": "Montigny-Beauchamp"}},{"type": "Feature", "geometry": {"coordinates": [-1.362880086621672, -5.981791001543085], "type": "Point"}, "properties": {"geo_point_2d": [-5.981791001543085, -1.3628800866216717], "y": 328.83627006, "id_ref_zdl": 47882, "indice_lig": "N", "x": 50.52106783, "idrefliga": "A01847", "nom_gare": "EPONE-MEZIERES", "mode": "TRAIN", "gares_id": 261, "res_com": "TRAIN N", "ligne_code": "TRAIN N-130", "nom_iv": "Epone-Mezieres"}},{"type": "Feature", "geometry": {"coordinates": [-1.361876608027571, -5.980368291430177], "type": "Point"}, "properties": {"geo_point_2d": [-5.980368291430177, -1.3618766080275706], "y": 547.68714659, "id_ref_zdl": 43126, "indice_lig": "H", "x": 223.94160535, "idrefliga": "A01849", "nom_gare": "FRANCONVILLE-LE-PLESSIS-BOUCHARD", "mode": "TRAIN", "gares_id": 291, "res_com": "TRAIN H", "ligne_code": "TRAIN H-229", "nom_iv": "Franconville - Le-Plessis-Bouchard"}},{"type": "Feature", "geometry": {"coordinates": [-1.361251780306141, -5.98364016909875], "type": "Point"}, "properties": {"geo_point_2d": [-5.98364016909875, -1.361251780306141], "y": 18.38613549, "id_ref_zdl": 47115, "terminus": "RER C", "indice_lig": "C", "x": 295.12279946, "idrefliga": "A01840", "nom_gare": "ST-MARTIN-D'ETAMPES", "mode": "RER", "gares_id": 825, "res_com": "RER C", "ligne_code": "RER C-191", "nom_iv": "St-Martin-D'Etampes"}},{"type": "Feature", "geometry": {"coordinates": [-1.359236210749311, -5.980999048283432], "type": "Point"}, "properties": {"geo_point_2d": [-5.980999048283432, -1.3592362107493106], "y": 423.32447889, "id_ref_zdl": 47322, "indice_lig": "P", "x": 641.53009858, "idrefliga": "A01844", "nom_gare": "ESBLY", "mode": "TRAIN", "gares_id": 267, "res_com": "TRAIN P", "ligne_code": "TRAIN P-14", "nom_iv": "Esbly"}},{"type": "Feature", "geometry": {"coordinates": [-1.361196733164489, -5.981831174713387], "type": "Point"}, "properties": {"geo_point_2d": [-5.9818311747133865, -1.3611967331644894], "y": 307.48647625, "id_ref_zdl": 43407, "indice_lig": "C", "x": 319.95591555, "idrefliga": "A01840", "nom_gare": "INVALIDES", "mode": "RER", "gares_id": 361, "res_com": "RER C", "ligne_code": "RER C-312", "nom_iv": "Invalides"}},{"type": "Feature", "geometry": {"coordinates": [-1.361420724160842, -5.982290468108483], "type": "Point"}, "properties": {"geo_point_2d": [-5.982290468108483, -1.3614207241608418], "y": 235.94706283, "id_ref_zdl": 58798, "indice_lig": "C", "x": 279.99171155, "idrefliga": "A01840", "nom_gare": "PONT DU GARIGLIANO", "mode": "RER", "gares_id": 57, "res_com": "RER C", "ligne_code": "RER C-316", "nom_iv": "Pont du Garigliano"}},{"type": "Feature", "geometry": {"coordinates": [-1.360162991001525, -5.981176198575564], "type": "Point"}, "properties": {"geo_point_2d": [-5.9811761985755645, -1.3601629910015252], "y": 403.17584161, "id_ref_zdl": 44201, "indice_lig": "E", "x": 491.42921961, "idrefliga": "A01843", "nom_gare": "NOISY-LE-SEC", "mode": "RER", "gares_id": 599, "res_com": "RER E", "ligne_code": "RER E-360", "nom_iv": "Noisy-le-Sec"}},{"type": "Feature", "geometry": {"coordinates": [-1.359102875650475, -5.98129788899978], "type": "Point"}, "properties": {"geo_point_2d": [-5.98129788899978, -1.359102875650475], "y": 374.30547368, "id_ref_zdl": 58581, "indice_lig": "P", "x": 660.25590067, "idrefliga": "A01844", "nom_gare": "VILLIERS-MONTBARBIN", "mode": "TRAIN", "gares_id": 910, "res_com": "TRAIN P", "ligne_code": "TRAIN P-24", "nom_iv": "Villiers-Montbarbin"}},{"type": "Feature", "geometry": {"coordinates": [-1.359640975453248, -5.983306122992208], "type": "Point"}, "properties": {"geo_point_2d": [-5.983306122992208, -1.3596409754532484], "y": 57.59049063, "id_ref_zdl": 43107, "indice_lig": "R", "x": 556.24781748, "idrefliga": "A01845", "nom_gare": "CHARTRETTES", "mode": "TRAIN", "gares_id": 158, "res_com": "TRAIN R", "ligne_code": "TRAIN R-54", "nom_iv": "Chartrettes"}},{"type": "Feature", "geometry": {"coordinates": [-1.359544423395763, -5.983300799593235], "type": "Point"}, "properties": {"geo_point_2d": [-5.983300799593235, -1.3595444233957634], "y": 57.58765745, "id_ref_zdl": 43123, "indice_lig": "R", "x": 571.76966637, "idrefliga": "A01845", "nom_gare": "FONTAINE-LE-PORT", "mode": "TRAIN", "gares_id": 285, "res_com": "TRAIN R", "ligne_code": "TRAIN R-55", "nom_iv": "Fontaine-le-Port"}},{"type": "Feature", "geometry": {"coordinates": [-1.359157220270535, -5.983279480733222], "type": "Point"}, "properties": {"geo_point_2d": [-5.983279480733222, -1.3591572202705346], "y": 57.5706834, "id_ref_zdl": 43218, "indice_lig": "R", "x": 634.01641602, "idrefliga": "A01845", "nom_gare": "VERNOU-SUR-SEINE", "mode": "TRAIN", "gares_id": 882, "res_com": "TRAIN R", "ligne_code": "TRAIN R-65", "nom_iv": "Vernou-sur-Seine"}},{"type": "Feature", "geometry": {"coordinates": [-1.35959421656174, -5.983521415194743], "type": "Point"}, "properties": {"geo_point_2d": [-5.983521415194743, -1.3595942165617396], "y": 22.71160471, "id_ref_zdl": 47119, "indice_lig": "R", "x": 561.8371991, "idrefliga": "A01845", "nom_gare": "BAGNEUX-SUR-LOING", "mode": "TRAIN", "gares_id": 46, "res_com": "TRAIN R", "ligne_code": "TRAIN R-70", "nom_iv": "Bagneux-sur-Loing"}},{"type": "Feature", "geometry": {"coordinates": [-1.35932603651461, -5.98350662768206], "type": "Point"}, "properties": {"geo_point_2d": [-5.98350662768206, -1.3593260365146098], "y": 22.7034586, "id_ref_zdl": 47124, "indice_lig": "R", "x": 604.95016189, "idrefliga": "A01845", "nom_gare": "BOURRON-MARLOTTE-GREZ", "mode": "TRAIN", "gares_id": 103, "res_com": "TRAIN R", "ligne_code": "TRAIN R-68", "nom_iv": "Bourron-Marlotte-Grez"}},{"type": "Feature", "geometry": {"coordinates": [-1.36094214699616, -5.982918713363579], "type": "Point"}, "properties": {"geo_point_2d": [-5.982918713363579, -1.3609421469961605], "y": 131.13565096, "id_ref_zdl": 44787, "indice_lig": "C", "x": 351.13381637, "idrefliga": "A01840", "nom_gare": "RUNGIS-LA FRATERNELLE", "mode": "RER", "gares_id": 756, "res_com": "RER C", "ligne_code": "RER C-305", "nom_iv": "Rungis - La Fraternelle"}},{"type": "Feature", "geometry": {"coordinates": [-1.360590066280547, -5.982891338353775], "type": "Point"}, "properties": {"geo_point_2d": [-5.982891338353775, -1.3605900662805475], "y": 133.01953395, "id_ref_zdl": 46298, "indice_lig": "C", "x": 409.28047796, "idrefliga": "A01840", "nom_gare": "LES SAULES", "mode": "RER", "gares_id": 454, "res_com": "RER C", "ligne_code": "RER C-350", "nom_iv": "Les Saules"}},{"type": "Feature", "geometry": {"coordinates": [-1.360555132452283, -5.983178805622122], "type": "Point"}, "properties": {"geo_point_2d": [-5.9831788056221225, -1.3605551324522827], "y": 86.07029571, "id_ref_zdl": 43225, "indice_lig": "D", "x": 410.85970074, "idrefliga": "A01842", "nom_gare": "VIRY-CHATILLON", "mode": "RER", "gares_id": 917, "res_com": "RER D", "ligne_code": "RER D-152", "nom_iv": "Viry-Chatillon"}},{"type": "Feature", "geometry": {"coordinates": [-1.360030002848147, -5.98325248335986], "type": "Point"}, "properties": {"geo_point_2d": [-5.98325248335986, -1.3600300028481473], "y": 69.62345293, "id_ref_zdl": 47669, "indice_lig": "D", "x": 494.37174061, "idrefliga": "A01842", "nom_gare": "LIEUSAINT-MOISSY", "mode": "RER", "gares_id": 468, "res_com": "RER D", "ligne_code": "RER D-44", "nom_iv": "Lieusaint-Moissy"}},{"type": "Feature", "geometry": {"coordinates": [-1.360689690566226, -5.98338669929095], "type": "Point"}, "properties": {"geo_point_2d": [-5.98338669929095, -1.3606896905662256], "y": 53.9821594, "id_ref_zdl": 48489, "indice_lig": "D", "x": 387.45400859, "idrefliga": "A01842", "nom_gare": "ORANGIS-BOIS DE L'EPINE", "mode": "RER", "gares_id": 609, "res_com": "RER D", "ligne_code": "RER D-166", "nom_iv": "Orangis-Bois de l'Epine"}},{"type": "Feature", "geometry": {"coordinates": [-1.360522490653032, -5.98345924849639], "type": "Point"}, "properties": {"geo_point_2d": [-5.98345924849639, -1.3605224906530322], "y": 40.88797215, "id_ref_zdl": 45850, "indice_lig": "D", "x": 406.40292534, "idrefliga": "A01842", "nom_gare": "LE BRAS-DE-FER", "mode": "RER", "gares_id": 428, "res_com": "RER D", "ligne_code": "RER D-204", "nom_iv": "Le Bras-de-Fer"}},{"type": "Feature", "geometry": {"coordinates": [-1.360552568963279, -5.983263871179796], "type": "Point"}, "properties": {"geo_point_2d": [-5.983263871179796, -1.3605525689632791], "y": 72.81589851, "id_ref_zdl": 47948, "indice_lig": "D", "x": 408.18291326, "idrefliga": "A01842", "nom_gare": "RIS-ORANGIS", "mode": "RER", "gares_id": 740, "res_com": "RER D", "ligne_code": "RER D-154", "nom_iv": "Ris-Orangis"}},{"type": "Feature", "geometry": {"coordinates": [-1.360386659736052, -5.983486658820707], "type": "Point"}, "properties": {"geo_point_2d": [-5.9834866588207065, -1.3603866597360517], "y": 36.74780469, "id_ref_zdl": 45759, "indice_lig": "D", "x": 437.86932144, "idrefliga": "A01842", "nom_gare": "ESSONNES-ROBINSON", "mode": "RER", "gares_id": 270, "res_com": "RER D", "ligne_code": "RER D-206", "nom_iv": "Essonnes-Robinson"}},{"type": "Feature", "geometry": {"coordinates": [-1.360692595953337, -5.983162981079126], "type": "Point"}, "properties": {"geo_point_2d": [-5.9831629810791265, -1.3606925959533374], "y": 89.82159089, "id_ref_zdl": 43192, "indice_lig": "C", "x": 388.96809161, "idrefliga": "A01840", "nom_gare": "SAVIGNY-SUR-ORGE", "mode": "RER", "gares_id": 788, "res_com": "RER C", "ligne_code": "RER C-157", "nom_iv": "Savigny-sur-Orge"}},{"type": "Feature", "geometry": {"coordinates": [-1.360920857772256, -5.983176138378968], "type": "Point"}, "properties": {"geo_point_2d": [-5.983176138378968, -1.3609208577722565], "y": 89.7377215, "id_ref_zdl": 47945, "indice_lig": "C", "x": 352.26765316, "idrefliga": "A01840", "nom_gare": "PETIT-VAUX", "mode": "RER", "gares_id": 639, "res_com": "RER C", "ligne_code": "RER C-161", "nom_iv": "Petit-Vaux"}},{"type": "Feature", "geometry": {"coordinates": [-1.361158680363947, -5.983189310836074], "type": "Point"}, "properties": {"geo_point_2d": [-5.983189310836074, -1.3611586803639468], "y": 89.73630685, "id_ref_zdl": 43109, "indice_lig": "C", "x": 314.0344806, "idrefliga": "A01840", "nom_gare": "CHILLY-MAZARIN", "mode": "RER", "gares_id": 184, "res_com": "RER C", "ligne_code": "RER C-163", "nom_iv": "Chilly-Mazarin"}},{"type": "Feature", "geometry": {"coordinates": [-1.361246267948916, -5.983176940478319], "type": "Point"}, "properties": {"geo_point_2d": [-5.9831769404783195, -1.361246267948916], "y": 92.49275898, "id_ref_zdl": 47059, "indice_lig": "C", "x": 300.10623894, "idrefliga": "A01840", "nom_gare": "LONGJUMEAU", "mode": "RER", "gares_id": 474, "res_com": "RER C", "ligne_code": "RER C-164", "nom_iv": "Longjumeau"}},{"type": "Feature", "geometry": {"coordinates": [-1.36189436208515, -5.983035288171561], "type": "Point"}, "properties": {"geo_point_2d": [-5.983035288171561, -1.3618943620851502], "y": 120.91224093, "id_ref_zdl": 43136, "indice_lig": "C", "x": 197.48827469, "idrefliga": "A01840", "nom_gare": "JOUY-EN-JOSAS", "mode": "RER", "gares_id": 380, "res_com": "RER C", "ligne_code": "RER C-77", "nom_iv": "Jouy-en-Josas"}},{"type": "Feature", "geometry": {"coordinates": [-1.361389571037337, -5.983515571176134], "type": "Point"}, "properties": {"geo_point_2d": [-5.983515571176134, -1.361389571037337], "y": 39.55326109, "id_ref_zdl": 43068, "indice_lig": "C", "x": 274.14133422, "idrefliga": "A01840", "nom_gare": "ARPAJON", "mode": "RER", "gares_id": 26, "res_com": "RER C", "ligne_code": "RER C-196", "nom_iv": "Arpajon"}},{"type": "Feature", "geometry": {"coordinates": [-1.361085642252184, -5.983408264019102], "type": "Point"}, "properties": {"geo_point_2d": [-5.9834082640191015, -1.361085642252184], "y": 54.03832449, "id_ref_zdl": 43159, "indice_lig": "C", "x": 323.80272528, "idrefliga": "A01840", "nom_gare": "MAROLLES-EN-HUREPOIX", "mode": "RER", "gares_id": 518, "res_com": "RER C", "ligne_code": "RER C-185", "nom_iv": "Marolles-en-Hurepoix"}},{"type": "Feature", "geometry": {"coordinates": [-1.361826602307369, -5.983578428898858], "type": "Point"}, "properties": {"geo_point_2d": [-5.983578428898858, -1.3618266023073693], "y": 33.36379576, "id_ref_zdl": 43099, "indice_lig": "C", "x": 203.54045399, "idrefliga": "A01840", "nom_gare": "BREUILLET-VILLAGE", "mode": "RER", "gares_id": 110, "res_com": "RER C", "ligne_code": "RER C-199", "nom_iv": "Breuillet-Village"}},{"type": "Feature", "geometry": {"coordinates": [-1.361970991977333, -5.983586106492424], "type": "Point"}, "properties": {"geo_point_2d": [-5.983586106492424, -1.3619709919773328], "y": 33.41432088, "id_ref_zdl": 47952, "indice_lig": "C", "x": 180.33068411, "idrefliga": "A01840", "nom_gare": "ST-CHERON", "mode": "RER", "gares_id": 811, "res_com": "RER C", "ligne_code": "RER C-200", "nom_iv": "St-Cheron"}},{"type": "Feature", "geometry": {"coordinates": [-1.360354904290325, -5.983560233347231], "type": "Point"}, "properties": {"geo_point_2d": [-5.983560233347231, -1.3603549042903251], "y": 23.23591458, "id_ref_zdl": 47899, "indice_lig": "D", "x": 439.34761665, "idrefliga": "A01842", "nom_gare": "MENNECY", "mode": "RER", "gares_id": 534, "res_com": "RER D", "ligne_code": "RER D-211", "nom_iv": "Mennecy"}},{"type": "Feature", "geometry": {"coordinates": [-1.359778947365578, -5.98271229866736], "type": "Point"}, "properties": {"geo_point_2d": [-5.9827122986673595, -1.359778947365578], "y": 153.87397836, "id_ref_zdl": 58792, "indice_lig": "A", "x": 539.38849218, "idrefliga": "A01856", "nom_gare": "SUCY-BONNEUIL", "mode": "RER", "gares_id": 841, "res_com": "RER A", "ligne_code": "RER A-431", "nom_iv": "Sucy-Bonneuil"}},{"type": "Feature", "geometry": {"coordinates": [-1.359991762745405, -5.982430307098208], "type": "Point"}, "properties": {"geo_point_2d": [-5.982430307098208, -1.359991762745405], "y": 200.90093734, "id_ref_zdl": 43234, "indice_lig": "A", "x": 507.77544764, "idrefliga": "A01856", "nom_gare": "LE PARC-DE-ST-MAUR", "mode": "RER", "gares_id": 431, "res_com": "RER A", "ligne_code": "RER A-346", "nom_iv": "Le Parc-de-St-Maur"}},{"type": "Feature", "geometry": {"coordinates": [-1.359558166222396, -5.980073520661265], "type": "Point"}, "properties": {"geo_point_2d": [-5.980073520661265, -1.3595581662223963], "y": 574.33207374, "id_ref_zdl": 46731, "indice_lig": "K", "x": 598.11889484, "idrefliga": "A02175", "nom_gare": "COMPANS", "mode": "TRAIN", "gares_id": 198, "res_com": "TRAIN K", "ligne_code": "TRAIN K-35", "nom_iv": "Compans"}},{"type": "Feature", "geometry": {"coordinates": [-1.359563794931782, -5.979971353274037], "type": "Point"}, "properties": {"geo_point_2d": [-5.979971353274037, -1.3595637949317825], "y": 590.73649447, "id_ref_zdl": 47960, "indice_lig": "K", "x": 598.12087213, "idrefliga": "A02175", "nom_gare": "THIEUX NANTOUILLET", "mode": "TRAIN", "gares_id": 852, "res_com": "TRAIN K", "ligne_code": "TRAIN K-36", "nom_iv": "Thieux Nantouillet"}},{"type": "Feature", "geometry": {"coordinates": [-1.359569437901557, -5.979868920765603], "type": "Point"}, "properties": {"geo_point_2d": [-5.979868920765603, -1.359569437901557], "y": 607.18351357, "id_ref_zdl": 46736, "indice_lig": "K", "x": 598.12263262, "idrefliga": "A02175", "nom_gare": "DAMMARTIN JUILLY ST-MARD", "mode": "TRAIN", "gares_id": 230, "res_com": "TRAIN K", "ligne_code": "TRAIN K-37", "nom_iv": "Dammartin Juilly St-Mard"}},{"type": "Feature", "geometry": {"coordinates": [-1.359257592291933, -5.98061432441366], "type": "Point"}, "properties": {"geo_point_2d": [-5.98061432441366, -1.359257592291933], "y": 485.09974455, "id_ref_zdl": 47962, "indice_lig": "P", "x": 641.50671572, "idrefliga": "A01844", "nom_gare": "TRILPORT", "mode": "TRAIN", "gares_id": 860, "res_com": "TRAIN P", "ligne_code": "TRAIN P-16", "nom_iv": "Trilport"}},{"type": "Feature", "geometry": {"coordinates": [-1.362810095185535, -5.981586398370279], "type": "Point"}, "properties": {"geo_point_2d": [-5.981586398370279, -1.3628100951855346], "y": 360.96851302, "id_ref_zdl": 43070, "indice_lig": "J", "x": 63.54987786, "idrefliga": "A01852", "nom_gare": "AUBERGENVILLE-ELISABETHVILLE", "mode": "TRAIN", "gares_id": 33, "res_com": "TRAIN J", "ligne_code": "TRAIN J-131", "nom_iv": "Aubergenville-Elisabethville"}},{"type": "Feature", "geometry": {"coordinates": [-1.360966895476882, -5.979933520293349], "type": "Point"}, "properties": {"geo_point_2d": [-5.979933520293349, -1.360966895476882], "y": 609.2225782, "id_ref_zdl": 47533, "indice_lig": "H", "x": 373.5859893, "idrefliga": "A01849", "nom_gare": "BRUYERES-SUR-OISE", "mode": "TRAIN", "gares_id": 115, "res_com": "TRAIN H", "ligne_code": "TRAIN H-271", "nom_iv": "Bruyeres-sur-Oise"}},{"type": "Feature", "geometry": {"coordinates": [-1.362639450501815, -5.98250679765609], "type": "Point"}, "properties": {"geo_point_2d": [-5.98250679765609, -1.3626394505018151], "y": 212.11791992, "id_ref_zdl": 43181, "indice_lig": "N", "x": 82.75030518, "idrefliga": "A01847", "nom_gare": "PLAISIR-LES-CLAYES", "mode": "TRAIN", "gares_id": 658, "res_com": "TRAIN N", "ligne_code": "TRAIN N-87", "nom_iv": "Plaisir-les-Clayes"}},{"type": "Feature", "geometry": {"coordinates": [-1.363048178216681, -5.982612124865594], "type": "Point"}, "properties": {"geo_point_2d": [-5.982612124865594, -1.3630481782166806], "y": 198.88012695, "id_ref_zdl": 47935, "indice_lig": "N", "x": 16.31048584, "idrefliga": "A01847", "nom_gare": "HOUDAN", "mode": "TRAIN", "gares_id": 356, "res_com": "TRAIN N", "ligne_code": "TRAIN N-107", "nom_iv": "Houdan"}},{"type": "Feature", "geometry": {"coordinates": [-1.362769295976545, -5.982235853820136], "type": "Point"}, "properties": {"geo_point_2d": [-5.982235853820136, -1.3627692959765454], "y": 256.64196386, "id_ref_zdl": 46857, "indice_lig": "N", "x": 64.33876503, "idrefliga": "A01847", "nom_gare": "BEYNES", "mode": "TRAIN", "gares_id": 69, "res_com": "TRAIN N", "ligne_code": "TRAIN N-91", "nom_iv": "Beynes"}},{"type": "Feature", "geometry": {"coordinates": [-1.362778621813513, -5.982156034760449], "type": "Point"}, "properties": {"geo_point_2d": [-5.9821560347604485, -1.3627786218135125], "y": 269.50217883, "id_ref_zdl": 46884, "indice_lig": "N", "x": 63.55086023, "idrefliga": "A01847", "nom_gare": "MAREIL-SUR-MAULDRE", "mode": "TRAIN", "gares_id": 515, "res_com": "TRAIN N", "ligne_code": "TRAIN N-92", "nom_iv": "Mareil-sur-Mauldre"}},{"type": "Feature", "geometry": {"coordinates": [-1.362785202875606, -5.982036655506163], "type": "Point"}, "properties": {"geo_point_2d": [-5.982036655506163, -1.3627852028756056], "y": 288.67069892, "id_ref_zdl": 46886, "indice_lig": "N", "x": 63.55291901, "idrefliga": "A01847", "nom_gare": "MAULE", "mode": "TRAIN", "gares_id": 526, "res_com": "TRAIN N", "ligne_code": "TRAIN N-93", "nom_iv": "Maule"}},{"type": "Feature", "geometry": {"coordinates": [-1.361558083999584, -5.980517250464428], "type": "Point"}, "properties": {"geo_point_2d": [-5.980517250464428, -1.3615580839995842], "y": 521.01965467, "id_ref_zdl": 47898, "terminus": "TRAIN J", "indice_lig": "J", "x": 273.67196106, "idrefliga": "A01852", "nom_gare": "ERMONT-EAUBONNE", "mode": "TRAIN", "gares_id": 997, "res_com": "TRAIN J", "ligne_code": "TRAIN J-223", "nom_iv": "Ermont-Eaubonne"}},{"type": "Feature", "geometry": {"coordinates": [-1.361277360740625, -5.982720106284519], "type": "Point"}, "properties": {"geo_point_2d": [-5.982720106284519, -1.3612773607406252], "y": 165.89948762, "id_ref_zdl": 43186, "terminus": "RER B", "indice_lig": "B", "x": 299.16606501, "idrefliga": "A01857", "nom_gare": "ROBINSON", "mode": "RER", "gares_id": 742, "res_com": "RER B", "ligne_code": "RER B-292", "nom_iv": "Robinson"}},{"type": "Feature", "geometry": {"coordinates": [-1.361801070929433, -5.981004012105762], "type": "Point"}, "properties": {"geo_point_2d": [-5.981004012105762, -1.3618010709294333], "y": 445.25314543, "id_ref_zdl": 43069, "indice_lig": "J", "x": 230.42059468, "idrefliga": "A01852", "nom_gare": "ASNIERES", "mode": "TRAIN", "gares_id": 29, "res_com": "TRAIN J", "ligne_code": "TRAIN J-394", "nom_iv": "Asnieres"}},{"type": "Feature", "geometry": {"coordinates": [-1.362274507306059, -5.981274443678778], "type": "Point"}, "properties": {"geo_point_2d": [-5.981274443678778, -1.362274507306059], "y": 406.15867097, "id_ref_zdl": 43082, "indice_lig": "J", "x": 152.14977643, "idrefliga": "A01852", "nom_gare": "HOUILLES-CARRIERES-SUR-SEINE", "mode": "TRAIN", "gares_id": 358, "res_com": "TRAIN J", "ligne_code": "TRAIN J-141", "nom_iv": "Houilles-Carrieres-sur-Seine"}},{"type": "Feature", "geometry": {"coordinates": [-1.362695749073148, -5.980710184352242], "type": "Point"}, "properties": {"geo_point_2d": [-5.980710184352242, -1.362695749073148], "y": 500.21792826, "id_ref_zdl": 43114, "indice_lig": "L", "x": 89.63356885, "idrefliga": "A02176", "nom_gare": "CONFLANS-FIN-D'OISE", "mode": "TRAIN", "gares_id": 1013, "res_com": "TRAIN L", "ligne_code": "TRAIN L-128", "nom_iv": "Conflans-Fin-D'Oise"}},{"type": "Feature", "geometry": {"coordinates": [-1.360758289527987, -5.982373085739675], "type": "Point"}, "properties": {"geo_point_2d": [-5.982373085739675, -1.3607582895279873], "y": 216.8519325, "id_ref_zdl": 43643, "indice_lig": "7", "x": 385.42948511, "idrefliga": "A01540", "nom_gare": "LE KREMLIN-BIC\u00caTRE", "mode": "METRO", "gares_id": 442, "res_com": "METRO 7", "ligne_code": "METRO 7-107095", "nom_iv": "Le Kremlin-Bic\u00eatre"}},{"type": "Feature", "geometry": {"coordinates": [-1.360578981524536, -5.982318986735145], "type": "Point"}, "properties": {"geo_point_2d": [-5.982318986735145, -1.360578981524536], "y": 223.92352295, "id_ref_zdl": 44343, "indice_lig": "7", "x": 414.64611816, "idrefliga": "A01540", "nom_gare": "PIERRE ET MARIE CURIE", "mode": "METRO", "gares_id": 642, "res_com": "METRO 7", "ligne_code": "METRO 7-107089", "nom_iv": "Pierre et Marie Curie"}},{"type": "Feature", "geometry": {"coordinates": [-1.361110963897283, -5.98117767024824], "type": "Point"}, "properties": {"geo_point_2d": [-5.98117767024824, -1.361110963897283], "y": 411.33902351, "id_ref_zdl": 44515, "terminus": "METRO 4", "indice_lig": "4", "x": 339.485879, "idrefliga": "A01537", "nom_gare": "PORTE DE CLIGNACOURT", "mode": "METRO", "gares_id": 690, "res_com": "METRO 4", "ligne_code": "METRO 4-104029", "nom_iv": "Pte de Clignacourt"}},{"type": "Feature", "geometry": {"coordinates": [-1.361086016273753, -5.982560818675774], "type": "Point"}, "properties": {"geo_point_2d": [-5.982560818675774, -1.3610860162737533], "y": 189.70325425, "id_ref_zdl": 42588, "terminus": "METRO 13", "indice_lig": "13", "x": 331.24300547, "idrefliga": "A01546", "nom_gare": "CH\u00c2TILLON MONTROUGE", "mode": "METRO", "gares_id": 171, "res_com": "METRO 13", "ligne_code": "METRO 13-114033", "nom_iv": "Ch\u00e2tillon Montrouge"}},{"type": "Feature", "geometry": {"coordinates": [-1.361097936890874, -5.982344519186748], "type": "Point"}, "properties": {"geo_point_2d": [-5.982344519186748, -1.3610979368908744], "y": 224.43437275, "id_ref_zdl": 413433, "indice_lig": "13", "x": 331.24672308, "idrefliga": "A01546", "nom_gare": "MALAKOFF-PLATEAU DE VANVES", "mode": "METRO", "gares_id": 504, "res_com": "METRO 13", "ligne_code": "METRO 13-114037", "nom_iv": "Malakoff-Plateau de Vanves"}},{"type": "Feature", "geometry": {"coordinates": [-1.361603263250475, -5.982332261918796], "type": "Point"}, "properties": {"geo_point_2d": [-5.9823322619187955, -1.3616032632504753], "y": 230.87431858, "id_ref_zdl": 47021, "indice_lig": "9", "x": 250.36619555, "idrefliga": "A01542", "nom_gare": "MARCEL SEMBAT", "mode": "METRO", "gares_id": 513, "res_com": "METRO 9", "ligne_code": "METRO 9-109025", "nom_iv": "Marcel Sembat"}},{"type": "Feature", "geometry": {"coordinates": [-1.361675589042177, -5.982185038581961], "type": "Point"}, "properties": {"geo_point_2d": [-5.982185038581961, -1.3616755890421768], "y": 255.08303669, "id_ref_zdl": 42380, "indice_lig": "10", "x": 240.07763796, "idrefliga": "A01543", "nom_gare": "BOULOGNE-JEAN JAUR\u00c8S", "mode": "METRO", "gares_id": 99, "res_com": "METRO 10", "ligne_code": "METRO 10-110025", "nom_iv": "Boulogne-Jean Jaur\u00e8s"}},{"type": "Feature", "geometry": {"coordinates": [-1.361775491303363, -5.982190557702444], "type": "Point"}, "properties": {"geo_point_2d": [-5.982190557702444, -1.3617754913033633], "y": 255.08473506, "id_ref_zdl": 42381, "terminus": "METRO 10", "indice_lig": "10", "x": 224.01736855, "idrefliga": "A01543", "nom_gare": "BOULOGNE-PONT DE SAINT-CLOUD", "mode": "METRO", "gares_id": 100, "res_com": "METRO 10", "ligne_code": "METRO 10-110023", "nom_iv": "Boulogne-Pt de Saint-Cloud"}},{"type": "Feature", "geometry": {"coordinates": [-1.360268283017591, -5.981637246495595], "type": "Point"}, "properties": {"geo_point_2d": [-5.981637246495595, -1.3602682830175912], "y": 330.30431287, "id_ref_zdl": 42789, "indice_lig": "9", "x": 470.47461865, "idrefliga": "A01542", "nom_gare": "CROIX DE CHAVAUX", "mode": "METRO", "gares_id": 228, "res_com": "METRO 9", "ligne_code": "METRO 9-109091", "nom_iv": "Croix de Chavaux"}},{"type": "Feature", "geometry": {"coordinates": [-1.360229865087682, -5.981855838559262], "type": "Point"}, "properties": {"geo_point_2d": [-5.9818558385592615, -1.3602298650876823], "y": 294.97181868, "id_ref_zdl": 42582, "terminus": "METRO 1", "indice_lig": "1", "x": 474.69758169, "idrefliga": "A01534", "nom_gare": "CH\u00c2TEAU DE VINCENNES", "mode": "METRO", "gares_id": 160, "res_com": "METRO 1", "ligne_code": "METRO 1-101033", "nom_iv": "Ch\u00e2teau de Vincennes"}},{"type": "Feature", "geometry": {"coordinates": [-1.360569433821625, -5.981808686872701], "type": "Point"}, "properties": {"geo_point_2d": [-5.981808686872701, -1.360569433821625], "y": 305.5282855, "id_ref_zdl": 44191, "terminus": "METRO 2", "indice_lig": "2", "x": 420.69223773, "idrefliga": "A01535", "nom_gare": "NATION", "mode": "METRO", "gares_id": 584, "res_com": "METRO 2", "ligne_code": "METRO 2-339", "nom_iv": "Nation"}},{"type": "Feature", "geometry": {"coordinates": [-1.360985412860871, -5.981698524262441], "type": "Point"}, "properties": {"geo_point_2d": [-5.981698524262441, -1.3609854128608707], "y": 326.84851074, "id_ref_zdl": 42587, "terminus": "METRO 11", "indice_lig": "11", "x": 354.99810791, "idrefliga": "A01544", "nom_gare": "CH\u00c2TELET", "mode": "METRO", "gares_id": 165, "res_com": "METRO 11", "ligne_code": "METRO 11-111057", "nom_iv": "Ch\u00e2telet"}},{"type": "Feature", "geometry": {"coordinates": [-1.360594324374004, -5.980756721826508], "type": "Point"}, "properties": {"geo_point_2d": [-5.980756721826508, -1.3605943243740042], "y": 474.14607764, "id_ref_zdl": 42763, "indice_lig": "1", "x": 425.77636647, "idrefliga": "A01191", "nom_gare": "COSMONAUTES", "mode": "TRAM", "gares_id": 213, "res_com": "TRAM 1", "ligne_code": "TRAM 1-1006", "nom_iv": "Cosmonautes"}},{"type": "Feature", "geometry": {"coordinates": [-1.360482325311376, -5.980752317361206], "type": "Point"}, "properties": {"geo_point_2d": [-5.9807523173612065, -1.3604823253113763], "y": 473.85896334, "id_ref_zdl": 46120, "indice_lig": "1", "x": 444.00077973, "idrefliga": "A01191", "nom_gare": "H\u00d4TEL DE VILLE DE LA COURNEUVE", "mode": "TRAM", "gares_id": 355, "res_com": "TRAM 1", "ligne_code": "TRAM 1-1008", "nom_iv": "H\u00f4tel de Ville De la Courneuve"}},{"type": "Feature", "geometry": {"coordinates": [-1.360214418549046, -5.980902650420181], "type": "Point"}, "properties": {"geo_point_2d": [-5.980902650420181, -1.3602144185490461], "y": 447.42059736, "id_ref_zdl": 47347, "indice_lig": "1", "x": 485.60736807, "idrefliga": "A01191", "nom_gare": "ESCADRILLE NORMANDIE-NIEMEN", "mode": "TRAM", "gares_id": 268, "res_com": "TRAM 1", "ligne_code": "TRAM 1-1016", "nom_iv": "Escadrille Normandie-Niemen"}},{"type": "Feature", "geometry": {"coordinates": [-1.361362819935005, -5.983079269923212], "type": "Point"}, "properties": {"geo_point_2d": [-5.983079269923212, -1.3613628199350054], "y": 109.16094983, "id_ref_zdl": 9999, "terminus": "RER C", "indice_lig": "C", "x": 282.29065808, "idrefliga": "A01840", "nom_gare": "MASSY-PALAISEAU", "mode": "RER", "gares_id": 9999, "res_com": "RER C", "ligne_code": "RER C-999999", "nom_iv": "Massy-Palaiseau"}},{"type": "Feature", "geometry": {"coordinates": [-1.362588561937337, -5.982986181306512], "type": "Point"}, "properties": {"geo_point_2d": [-5.982986181306512, -1.3625885619373372], "y": 134.92610461, "id_ref_zdl": 43249, "terminus": "RER C", "indice_lig": "C", "x": 86.66219684, "idrefliga": "A01840", "nom_gare": "ST-QUENTIN-EN-YVELINES", "mode": "RER", "gares_id": 835, "res_com": "RER C", "ligne_code": "RER C-80", "nom_iv": "St-Quentin-en-Yvelines"}},{"type": "Feature", "geometry": {"coordinates": [-1.362725643612989, -5.983112623831587], "type": "Point"}, "properties": {"geo_point_2d": [-5.9831126238315875, -1.3627256436129893], "y": 115.89998954, "id_ref_zdl": 43147, "indice_lig": "N", "x": 63.5723896, "idrefliga": "A01847", "nom_gare": "LA VERRIERE", "mode": "TRAIN", "gares_id": 406, "res_com": "TRAIN N", "ligne_code": "TRAIN N-82", "nom_iv": "La Verriere"}},{"type": "Feature", "geometry": {"coordinates": [-1.359785619337006, -5.983437783169312], "type": "Point"}, "properties": {"geo_point_2d": [-5.983437783169312, -1.359785619337006], "y": 37.79513389, "id_ref_zdl": 47909, "terminus": "RER D", "indice_lig": "D", "x": 531.90034551, "idrefliga": "A01842", "nom_gare": "MELUN", "mode": "RER", "gares_id": 530, "res_com": "RER D", "ligne_code": "RER D-49", "nom_iv": "Melun"}},{"type": "Feature", "geometry": {"coordinates": [-1.361432445111113, -5.981606547397243], "type": "Point"}, "properties": {"geo_point_2d": [-5.981606547397243, -1.3614324451111128], "y": 345.53342564, "id_ref_zdl": 58759, "indice_lig": "A", "x": 284.16658274, "idrefliga": "A01856", "nom_gare": "CHARLES DE GAULLE ETOILE", "mode": "RER", "gares_id": 151, "res_com": "RER A", "ligne_code": "RER A-337", "nom_iv": "Charles de Gaulle Etoile"}},{"type": "Feature", "geometry": {"coordinates": [-1.362406492678342, -5.983609269964908], "type": "Point"}, "properties": {"geo_point_2d": [-5.983609269964908, -1.3624064926783424], "y": 33.56617068, "id_ref_zdl": 47095, "terminus": "RER C", "indice_lig": "C", "x": 110.32665664, "idrefliga": "A01840", "nom_gare": "DOURDAN-LA-FORET", "mode": "RER", "gares_id": 241, "res_com": "RER C", "ligne_code": "RER C-219", "nom_iv": "Dourdan-la-Foret"}},{"type": "Feature", "geometry": {"coordinates": [-1.36203389585438, -5.980312977407398], "type": "Point"}, "properties": {"geo_point_2d": [-5.980312977407398, -1.3620338958543803], "y": 557.93561181, "id_ref_zdl": 43166, "indice_lig": "H", "x": 199.22322901, "idrefliga": "A01849", "nom_gare": "MONTIGNY-BEAUCHAMP", "mode": "TRAIN", "gares_id": 558, "res_com": "TRAIN H", "ligne_code": "TRAIN H-230", "nom_iv": "Montigny-Beauchamp"}},{"type": "Feature", "geometry": {"coordinates": [-1.361243109853859, -5.979967392967191], "type": "Point"}, "properties": {"geo_point_2d": [-5.979967392967191, -1.361243109853859], "y": 606.24765046, "id_ref_zdl": 47590, "indice_lig": "H", "x": 329.01838413, "idrefliga": "A01849", "nom_gare": "CHAMPAGNE-SUR-OISE", "mode": "TRAIN", "gares_id": 138, "res_com": "TRAIN H", "ligne_code": "TRAIN H-272", "nom_iv": "Champagne-sur-Oise"}},{"type": "Feature", "geometry": {"coordinates": [-1.362795811241154, -5.980292328611925], "type": "Point"}, "properties": {"geo_point_2d": [-5.980292328611925, -1.362795811241154], "y": 567.9938857, "id_ref_zdl": 44496, "terminus": "RER C", "indice_lig": "C", "x": 77.29637029, "idrefliga": "A01840", "nom_gare": "PONTOISE", "mode": "RER", "gares_id": 676, "res_com": "RER C", "ligne_code": "RER C-249", "nom_iv": "Pontoise"}},{"type": "Feature", "geometry": {"coordinates": [-1.361297770998201, -5.981478641082894], "type": "Point"}, "properties": {"geo_point_2d": [-5.9814786410828935, -1.3612977709982013], "y": 364.81525425, "id_ref_zdl": 58566, "terminus": "TRAIN L", "indice_lig": "L", "x": 306.88278202, "idrefliga": "A02176", "nom_gare": "ST-LAZARE", "mode": "TRAIN", "gares_id": 822, "res_com": "TRAIN L", "ligne_code": "TRAIN L-329", "nom_iv": "St-Lazare"}},{"type": "Feature", "geometry": {"coordinates": [-1.361003661574876, -5.981362103201624], "type": "Point"}, "properties": {"geo_point_2d": [-5.981362103201624, -1.3610036615748762], "y": 380.86442894, "id_ref_zdl": 43233, "indice_lig": "D", "x": 355.05072947, "idrefliga": "A01842", "nom_gare": "GARE DU NORD", "mode": "RER", "gares_id": 310, "res_com": "RER D", "ligne_code": "RER D-384", "nom_iv": "Gare du Nord"}},{"type": "Feature", "geometry": {"coordinates": [-1.360748776845613, -5.981864656012468], "type": "Point"}, "properties": {"geo_point_2d": [-5.981864656012468, -1.360748776845613], "y": 298.15762874, "id_ref_zdl": 43153, "indice_lig": "D", "x": 391.4536139, "idrefliga": "A01842", "nom_gare": "GARE DE LYON", "mode": "RER", "gares_id": 307, "res_com": "RER D", "ligne_code": "RER D-338", "nom_iv": "Gare de Lyon"}},{"type": "Feature", "geometry": {"coordinates": [-1.360794869922282, -5.981347935721713], "type": "Point"}, "properties": {"geo_point_2d": [-5.981347935721713, -1.3607948699222825], "y": 381.28243505, "id_ref_zdl": 43823, "indice_lig": "7", "x": 388.63894886, "idrefliga": "A01540", "nom_gare": "LOUIS BLANC", "mode": "METRO", "gares_id": 476, "res_com": "METRO 7", "ligne_code": "METRO 7-107041", "nom_iv": "Louis Blanc"}},{"type": "Feature", "geometry": {"coordinates": [-1.361551443869694, -5.98050086429176], "type": "Point"}, "properties": {"geo_point_2d": [-5.98050086429176, -1.3615514438696936], "y": 523.58374775, "id_ref_zdl": 47898, "indice_lig": "C", "x": 274.8812212, "idrefliga": "A01840", "nom_gare": "ERMONT-EAUBONNE", "mode": "RER", "gares_id": 265, "res_com": "RER C", "ligne_code": "RER C-223", "nom_iv": "Ermont-Eaubonne"}},{"type": "Feature", "geometry": {"coordinates": [-1.359607105025308, -5.981163124377611], "type": "Point"}, "properties": {"geo_point_2d": [-5.981163124377611, -1.3596071050253085], "y": 400.34454368, "id_ref_zdl": 46536, "indice_lig": "P", "x": 580.63592164, "idrefliga": "A01844", "nom_gare": "CHELLES-GOURNAY", "mode": "TRAIN", "gares_id": 942, "res_com": "TRAIN P", "ligne_code": "TRAIN P-1", "nom_iv": "Chelles-Gournay"}},{"type": "Feature", "geometry": {"coordinates": [-1.361966743884276, -5.981533175631373], "type": "Point"}, "properties": {"geo_point_2d": [-5.981533175631373, -1.3619667438842755], "y": 362.01359908, "id_ref_zdl": 43184, "indice_lig": "L", "x": 199.18428236, "idrefliga": "A02176", "nom_gare": "PUTEAUX", "mode": "TRAIN", "gares_id": 712, "res_com": "TRAIN L", "ligne_code": "TRAIN L-379", "nom_iv": "Puteaux"}},{"type": "Feature", "geometry": {"coordinates": [-1.362429333964686, -5.981626779861876], "type": "Point"}, "properties": {"geo_point_2d": [-5.981626779861876, -1.362429333964686], "y": 351.1293595, "id_ref_zdl": 43198, "terminus": "RER A", "indice_lig": "A", "x": 124.21678024, "idrefliga": "A01856", "nom_gare": "ST-GERMAIN-EN-LAYE", "mode": "RER", "gares_id": 820, "res_com": "RER A", "ligne_code": "RER A-95", "nom_iv": "St-Germain-en-laye"}},{"type": "Feature", "geometry": {"coordinates": [-1.360766087270701, -5.982231595743133], "type": "Point"}, "properties": {"geo_point_2d": [-5.982231595743133, -1.3607660872707006], "y": 239.57095839, "id_ref_zdl": 44057, "indice_lig": "7", "x": 385.43188499, "idrefliga": "A01540", "nom_gare": "MAISON BLANCHE", "mode": "METRO", "gares_id": 497, "res_com": "METRO 7", "ligne_code": "METRO 7-107081", "nom_iv": "Maison Blanche"}},{"type": "Feature", "geometry": {"coordinates": [-1.3606274819509, -5.981843991020937], "type": "Point"}, "properties": {"geo_point_2d": [-5.981843991020937, -1.3606274819508997], "y": 300.39106363, "id_ref_zdl": 44637, "indice_lig": "1", "x": 411.07627312, "idrefliga": "A01534", "nom_gare": "REUILLY-DIDEROT", "mode": "METRO", "gares_id": 734, "res_com": "METRO 1", "ligne_code": "METRO 1-101043", "nom_iv": "Reuilly-Diderot"}},{"type": "Feature", "geometry": {"coordinates": [-1.36108389158612, -5.981711026915326], "type": "Point"}, "properties": {"geo_point_2d": [-5.981711026915326, -1.3610838915861203], "y": 325.71975798, "id_ref_zdl": 44236, "indice_lig": "1", "x": 339.10433244, "idrefliga": "A01534", "nom_gare": "PALAIS ROYAL-MUS\u00c9E DU LOUVRE", "mode": "METRO", "gares_id": 618, "res_com": "METRO 1", "ligne_code": "METRO 1-101057", "nom_iv": "Palais Royal-Mus\u00e9e du Louvre"}},{"type": "Feature", "geometry": {"coordinates": [-1.361084493767243, -5.981932663994324], "type": "Point"}, "properties": {"geo_point_2d": [-5.981932663994324, -1.3610844937672435], "y": 290.24528231, "id_ref_zdl": 44828, "indice_lig": "10", "x": 337.04626592, "idrefliga": "A01543", "nom_gare": "S\u00c8VRES-BABYLONE", "mode": "METRO", "gares_id": 798, "res_com": "METRO 10", "ligne_code": "METRO 10-110055", "nom_iv": "S\u00e8vres-Babylone"}},{"type": "Feature", "geometry": {"coordinates": [-1.360890932415536, -5.981520139994786], "type": "Point"}, "properties": {"geo_point_2d": [-5.981520139994786, -1.3608909324155363], "y": 354.56719799, "id_ref_zdl": 44909, "indice_lig": "4", "x": 371.71912187, "idrefliga": "A01537", "nom_gare": "STRASBOURG-SAINT-DENIS", "mode": "METRO", "gares_id": 836, "res_com": "METRO 4", "ligne_code": "METRO 4-109067", "nom_iv": "Strasbourg-St-Denis"}},{"type": "Feature", "geometry": {"coordinates": [-1.360762016040898, -5.981532087765417], "type": "Point"}, "properties": {"geo_point_2d": [-5.981532087765417, -1.360762016040898], "y": 351.51241814, "id_ref_zdl": 44617, "indice_lig": "5", "x": 392.274846, "idrefliga": "A01538", "nom_gare": "R\u00c9PUBLIQUE", "mode": "METRO", "gares_id": 731, "res_com": "METRO 5", "ligne_code": "METRO 5-109069", "nom_iv": "R\u00e9publique"}},{"type": "Feature", "geometry": {"coordinates": [-1.36045631354282, -5.981993471418365], "type": "Point"}, "properties": {"geo_point_2d": [-5.981993471418365, -1.3604563135428205], "y": 274.94555526, "id_ref_zdl": 44532, "indice_lig": "8", "x": 437.18684175, "idrefliga": "A01541", "nom_gare": "PORTE DOR\u00c9E", "mode": "METRO", "gares_id": 705, "res_com": "METRO 8", "ligne_code": "METRO 8-108073", "nom_iv": "Pte Dor\u00e9e"}},{"type": "Feature", "geometry": {"coordinates": [-1.361528712716002, -5.98216709257319], "type": "Point"}, "properties": {"geo_point_2d": [-5.9821670925731905, -1.361528712716002], "y": 256.65412747, "id_ref_zdl": 44139, "indice_lig": "10", "x": 263.77642534, "idrefliga": "A01543", "nom_gare": "MICHEL ANGE-MOLITOR", "mode": "METRO", "gares_id": 544, "res_com": "METRO 10", "ligne_code": "METRO 10-110035", "nom_iv": "Michel Ange-Molitor"}},{"type": "Feature", "geometry": {"coordinates": [-1.361277158110561, -5.981721699596587], "type": "Point"}, "properties": {"geo_point_2d": [-5.981721699596587, -1.361277158110561], "y": 325.72378666, "id_ref_zdl": 42531, "indice_lig": "13", "x": 308.03509086, "idrefliga": "A01546", "nom_gare": "CHAMPS-ELYS\u00c9ES-CL\u00c9MENCEAU", "mode": "METRO", "gares_id": 145, "res_com": "METRO 13", "ligne_code": "METRO 13-101063", "nom_iv": "Champs-Elys\u00e9es-Cl\u00e9menceau"}},{"type": "Feature", "geometry": {"coordinates": [-1.360656256827497, -5.98142446484629], "type": "Point"}, "properties": {"geo_point_2d": [-5.98142446484629, -1.3606562568274974], "y": 367.80358087, "id_ref_zdl": 42311, "indice_lig": "11", "x": 410.17727634, "idrefliga": "A01544", "nom_gare": "BELLEVILLE", "mode": "METRO", "gares_id": 60, "res_com": "METRO 11", "ligne_code": "METRO 11-111045", "nom_iv": "Belleville"}},{"type": "Feature", "geometry": {"coordinates": [-1.361271138340591, -5.981324568259763], "type": "Point"}, "properties": {"geo_point_2d": [-5.981324568259763, -1.361271138340591], "y": 389.24290415, "id_ref_zdl": 44372, "indice_lig": "13", "x": 312.51483528, "idrefliga": "A01546", "nom_gare": "PLACE DE CLICHY", "mode": "METRO", "gares_id": 648, "res_com": "METRO 13", "ligne_code": "METRO 13-114065", "nom_iv": "Place de Clichy"}},{"type": "Feature", "geometry": {"coordinates": [-1.360772815531955, -5.98212160646859], "type": "Point"}, "properties": {"geo_point_2d": [-5.98212160646859, -1.3607728155319545], "y": 257.23764226, "id_ref_zdl": 44371, "indice_lig": "7", "x": 385.32696751, "idrefliga": "A01540", "nom_gare": "PLACE D'ITALIE", "mode": "METRO", "gares_id": 654, "res_com": "METRO 7", "ligne_code": "METRO 7-105081", "nom_iv": "Place d'Italie"}},{"type": "Feature", "geometry": {"coordinates": [-1.361418351050159, -5.981862076471161], "type": "Point"}, "properties": {"geo_point_2d": [-5.981862076471161, -1.3614183510501594], "y": 304.50334449, "id_ref_zdl": 44962, "indice_lig": "9", "x": 284.16383132, "idrefliga": "A01542", "nom_gare": "TROCAD\u00c9RO", "mode": "METRO", "gares_id": 863, "res_com": "METRO 9", "ligne_code": "METRO 9-109043", "nom_iv": "Trocad\u00e9ro"}},{"type": "Feature", "geometry": {"coordinates": [-1.360789146281825, -5.981353125012189], "type": "Point"}, "properties": {"geo_point_2d": [-5.981353125012189, -1.3607891462818247], "y": 380.40090601, "id_ref_zdl": 43823, "terminus": "METRO 7bis", "indice_lig": "7b", "x": 389.51032231, "idrefliga": "A01550", "nom_gare": "LOUIS BLANC", "mode": "METRO", "gares_id": 477, "res_com": "METRO 7bis", "ligne_code": "METRO 7bis-107041", "nom_iv": "Louis Blanc"}},{"type": "Feature", "geometry": {"coordinates": [-1.361141508971572, -5.981533982141036], "type": "Point"}, "properties": {"geo_point_2d": [-5.981533982141036, -1.3611415089715717], "y": 354.57150738, "id_ref_zdl": 42589, "indice_lig": "9", "x": 331.43686626, "idrefliga": "A01542", "nom_gare": "CHAUSS\u00c9E D'ANTIN-LA FAYETTE", "mode": "METRO", "gares_id": 174, "res_com": "METRO 9", "ligne_code": "METRO 9-109059", "nom_iv": "Chauss\u00e9e d'Antin - La Fayette"}},{"type": "Feature", "geometry": {"coordinates": [-1.361221935344369, -5.981538425200269], "type": "Point"}, "properties": {"geo_point_2d": [-5.981538425200269, -1.3612219353443686], "y": 354.57289371, "id_ref_zdl": 58718, "indice_lig": "3", "x": 318.50778156, "idrefliga": "A01536", "nom_gare": "HAVRE-CAUMARTIN", "mode": "METRO", "gares_id": 344, "res_com": "METRO 3", "ligne_code": "METRO 3-103061", "nom_iv": "Havre-Caumartin"}},{"type": "Feature", "geometry": {"coordinates": [-1.360153422459729, -5.981057728513864], "type": "Point"}, "properties": {"geo_point_2d": [-5.981057728513864, -1.3601534224597287], "y": 422.05560388, "id_ref_zdl": 42245, "indice_lig": "1", "x": 494.01083935, "idrefliga": "A01191", "nom_gare": "AUGUSTE DELAUNE", "mode": "TRAM", "gares_id": 970, "res_com": "TRAM 1", "ligne_code": "TRAM 1-1022", "nom_iv": "Auguste Delaune"}},{"type": "Feature", "geometry": {"coordinates": [-1.360150719348401, -5.98108489934669], "type": "Point"}, "properties": {"geo_point_2d": [-5.98108489934669, -1.3601507193484013], "y": 417.68223455, "id_ref_zdl": 44471, "indice_lig": "1", "x": 494.20370595, "idrefliga": "A01191", "nom_gare": "PONT DE BONDY", "mode": "TRAM", "gares_id": 971, "res_com": "TRAM 1", "ligne_code": "TRAM 1-1023", "nom_iv": "Pont de Bondy"}},{"type": "Feature", "geometry": {"coordinates": [-1.360615889279208, -5.982245757516353], "type": "Point"}, "properties": {"geo_point_2d": [-5.982245757516353, -1.3606158892792082], "y": 235.97314893, "id_ref_zdl": 44507, "indice_lig": "3A", "x": 409.37891981, "idrefliga": "A01193", "nom_gare": "PORTE D'IVRY", "mode": "TRAM", "gares_id": 993, "res_com": "TRAM 3a", "ligne_code": "TRAM 3a-107087", "nom_iv": "Pte d'Ivry"}},{"type": "Feature", "geometry": {"coordinates": [-1.360027744863778, -5.980591669651329], "type": "Point"}, "properties": {"geo_point_2d": [-5.980591669651329, -1.3600277448637783], "y": 495.54792301, "id_ref_zdl": 43071, "terminus": "TRAM  4", "indice_lig": "4", "x": 518.27685057, "idrefliga": "A01761", "nom_gare": "AULNAY-SOUS-BOIS", "mode": "TRAM", "gares_id": 36, "res_com": "TRAM 4", "ligne_code": "TRAM 4-405", "nom_iv": "Aulnay-sous-Bois"}},{"type": "Feature", "geometry": {"coordinates": [-1.361908088581201, -5.981762420216254], "type": "Point"}, "properties": {"geo_point_2d": [-5.981762420216254, -1.3619080885812007], "y": 324.79635141, "id_ref_zdl": 44914, "indice_lig": "2", "x": 206.55567467, "idrefliga": "A01192", "nom_gare": "SURESNES-LONGCHAMP", "mode": "TRAM", "gares_id": 844, "res_com": "TRAM 2", "ligne_code": "TRAM 2-325", "nom_iv": "Suresnes-Longchamp"}},{"type": "Feature", "geometry": {"coordinates": [-1.361377484595375, -5.982315305680351], "type": "Point"}, "properties": {"geo_point_2d": [-5.982315305680351, -1.3613774845953754], "y": 231.58803659, "id_ref_zdl": 45358, "indice_lig": "2", "x": 286.7020432, "idrefliga": "A01192", "nom_gare": "HENRI FARMAN", "mode": "TRAM", "gares_id": 1011, "res_com": "TRAM 2", "ligne_code": "TRAM 2-1501", "nom_iv": "Henri Farman"}},{"type": "Feature", "geometry": {"coordinates": [-1.360702760992805, -5.979810253165828], "type": "Point"}, "properties": {"geo_point_2d": [-5.979810253165828, -1.3607027609928048], "y": 626.61431885, "id_ref_zdl": 411329, "indice_lig": "H", "x": 417.00848389, "idrefliga": "A01849", "nom_gare": "SAINT-LEU D\u2019ESSERENT", "mode": "TRAIN", "gares_id": 1055, "res_com": "TRAIN H", "ligne_code": "TRAIN H-503", "nom_iv": "Saint-leu D\u2019Esserent"}},{"type": "Feature", "geometry": {"coordinates": [-1.360593772578953, -5.979804233649577], "type": "Point"}, "properties": {"geo_point_2d": [-5.979804233649577, -1.360593772578953], "y": 626.61243072, "id_ref_zdl": 411440, "terminus": "RER D", "indice_lig": "D", "x": 434.52894832, "idrefliga": "A01842", "nom_gare": "CREIL", "mode": "RER", "gares_id": 1053, "res_com": "RER D", "ligne_code": "RER D-502", "nom_iv": "Creil"}},{"type": "Feature", "geometry": {"coordinates": [-1.360511154173318, -5.979799653887648], "type": "Point"}, "properties": {"geo_point_2d": [-5.979799653887648, -1.3605111541733181], "y": 626.61358688, "id_ref_zdl": 411428, "indice_lig": "D", "x": 447.81034109, "idrefliga": "A01842", "nom_gare": "CHANTILLY GOUVIEUX", "mode": "RER", "gares_id": 1052, "res_com": "RER D", "ligne_code": "RER D-501", "nom_iv": "Chantilly Gouvieux"}},{"type": "Feature", "geometry": {"coordinates": [-1.359326167964435, -5.979786300630156], "type": "Point"}, "properties": {"geo_point_2d": [-5.979786300630156, -1.3593261679644348], "y": 618.25439495, "id_ref_zdl": 411387, "indice_lig": "K", "x": 637.84130971, "idrefliga": "A02175", "nom_gare": "ORMOY VILLERS", "mode": "TRAIN", "gares_id": 1064, "res_com": "TRAIN K", "ligne_code": "TRAIN K-512", "nom_iv": "Ormoy Villers"}},{"type": "Feature", "geometry": {"coordinates": [-1.363149247901299, -5.982656831831026], "type": "Point"}, "properties": {"geo_point_2d": [-5.982656831831026, -1.3631492479012994], "y": 192.61932373, "id_ref_zdl": 411492, "terminus": "TRAIN N", "indice_lig": "N", "x": -0.28381348, "idrefliga": "A01847", "nom_gare": "DREUX", "mode": "TRAIN", "gares_id": 1047, "res_com": "TRAIN N", "ligne_code": "TRAIN N-496", "nom_iv": "Dreux"}},{"type": "Feature", "geometry": {"coordinates": [-1.360036174376815, -5.97994053112085], "type": "Point"}, "properties": {"geo_point_2d": [-5.9799405311208504, -1.3600361743768152], "y": 599.85468549, "id_ref_zdl": 42163, "terminus": "CDGVAL", "indice_lig": "CDG", "x": 522.68689549, "idrefliga": "A01516", "nom_gare": "A\u00c9ROPORT CHARLES DE GAULLE 1 (TERMINAL 3)", "mode": "NAVETTE", "gares_id": 1001, "res_com": "CDGVAL", "ligne_code": "CDGVAL-463", "nom_iv": "A\u00e9roport CDG1 (Terminal 3)"}},{"type": "Feature", "geometry": {"coordinates": [-1.361040642782468, -5.983063118259481], "type": "Point"}, "properties": {"geo_point_2d": [-5.983063118259481, -1.3610406427824677], "y": 108.89165912, "id_ref_zdl": 42164, "indice_lig": "ORL", "x": 334.06957599, "idrefliga": "A01551", "nom_gare": "A\u00c9ROPORT ORLY 1-2-3", "mode": "NAVETTE", "gares_id": 8, "res_com": "ORLYVAL", "ligne_code": "ORLYVAL-449", "nom_iv": "A\u00e9roport Orly 1-2-3"}},{"type": "Feature", "geometry": {"coordinates": [-1.361430847254042, -5.981635370637663], "type": "Point"}, "properties": {"geo_point_2d": [-5.9816353706376635, -1.3614308472540422], "y": 340.90510936, "id_ref_zdl": 58759, "terminus": "METRO 6", "indice_lig": "6", "x": 284.16761057, "idrefliga": "A01539", "nom_gare": "CHARLES DE GAULLE ETOILE", "mode": "METRO", "gares_id": 154, "res_com": "METRO 6", "ligne_code": "METRO 6-337", "nom_iv": "Charles de Gaulle Etoile"}},{"type": "Feature", "geometry": {"coordinates": [-1.360986594286843, -5.98170565361676], "type": "Point"}, "properties": {"geo_point_2d": [-5.98170565361676, -1.3609865942868429], "y": 325.7177124, "id_ref_zdl": 42587, "indice_lig": "1", "x": 354.74572754, "idrefliga": "A01534", "nom_gare": "CH\u00c2TELET", "mode": "METRO", "gares_id": 166, "res_com": "METRO 1", "ligne_code": "METRO 1-111057", "nom_iv": "Ch\u00e2telet"}},{"type": "Feature", "geometry": {"coordinates": [-1.360985819534233, -5.981719932345587], "type": "Point"}, "properties": {"geo_point_2d": [-5.981719932345587, -1.3609858195342326], "y": 323.4250949, "id_ref_zdl": 42587, "indice_lig": "7", "x": 354.74360599, "idrefliga": "A01540", "nom_gare": "CH\u00c2TELET", "mode": "METRO", "gares_id": 169, "res_com": "METRO 7", "ligne_code": "METRO 7-111057", "nom_iv": "Ch\u00e2telet"}},{"type": "Feature", "geometry": {"coordinates": [-1.360985967134817, -5.981717259359789], "type": "Point"}, "properties": {"geo_point_2d": [-5.981717259359789, -1.3609859671348166], "y": 323.8543372, "id_ref_zdl": 42587, "indice_lig": "4", "x": 354.74362321, "idrefliga": "A01537", "nom_gare": "CH\u00c2TELET", "mode": "METRO", "gares_id": 168, "res_com": "METRO 4", "ligne_code": "METRO 4-111057", "nom_iv": "Ch\u00e2telet"}},{"type": "Feature", "geometry": {"coordinates": [-1.360977348589958, -5.982265831006925], "type": "Point"}, "properties": {"geo_point_2d": [-5.982265831006925, -1.3609773485899577], "y": 235.96227678, "id_ref_zdl": 44508, "indice_lig": "3A", "x": 351.26997188, "idrefliga": "A01193", "nom_gare": "PORTE D'ORL\u00c9ANS", "mode": "TRAM", "gares_id": 986, "res_com": "TRAM 3a", "ligne_code": "TRAM 3a-104079", "nom_iv": "Pte d'Orl\u00e9ans"}},{"type": "Feature", "geometry": {"coordinates": [-1.362484920053321, -5.980698508283242], "type": "Point"}, "properties": {"geo_point_2d": [-5.980698508283242, -1.3624849200533211], "y": 500.21837994, "id_ref_zdl": 47603, "indice_lig": "J", "x": 123.52600002, "idrefliga": "A01852", "nom_gare": "HERBLAY", "mode": "TRAIN", "gares_id": 346, "res_com": "TRAIN J", "ligne_code": "TRAIN J-227", "nom_iv": "Herblay"}},{"type": "Feature", "geometry": {"coordinates": [-1.361109927742036, -5.981196162489884], "type": "Point"}, "properties": {"geo_point_2d": [-5.981196162489884, -1.3611099277420364], "y": 408.36962863, "id_ref_zdl": 44833, "indice_lig": "4", "x": 339.48828258, "idrefliga": "A01537", "nom_gare": "SIMPLON", "mode": "METRO", "gares_id": 802, "res_com": "METRO 4", "ligne_code": "METRO 4-104031", "nom_iv": "Simplon"}},{"type": "Feature", "geometry": {"coordinates": [-1.361107835723205, -5.981234124034314], "type": "Point"}, "properties": {"geo_point_2d": [-5.981234124034314, -1.3611078357232047], "y": 402.27425508, "id_ref_zdl": 44075, "indice_lig": "12", "x": 339.48760129, "idrefliga": "A01545", "nom_gare": "MARCADET-POISSONNIERS", "mode": "METRO", "gares_id": 510, "res_com": "METRO 12", "ligne_code": "METRO 12-112081", "nom_iv": "Marcadet-Poissonniers"}},{"type": "Feature", "geometry": {"coordinates": [-1.360956039054589, -5.981223350899242], "type": "Point"}, "properties": {"geo_point_2d": [-5.981223350899242, -1.3609560390545885], "y": 402.65368652, "id_ref_zdl": 44113, "indice_lig": "12", "x": 363.91107178, "idrefliga": "A01545", "nom_gare": "MARX DORMOY", "mode": "METRO", "gares_id": 519, "res_com": "METRO 12", "ligne_code": "METRO 12-112083", "nom_iv": "Marx Dormoy"}},{"type": "Feature", "geometry": {"coordinates": [-1.361184225687991, -5.981255777899621], "type": "Point"}, "properties": {"geo_point_2d": [-5.981255777899621, -1.3611842256879911], "y": 399.48469046, "id_ref_zdl": 43600, "indice_lig": "12", "x": 327.05306254, "idrefliga": "A01545", "nom_gare": "LAMARCK-CAULAINCOURT", "mode": "METRO", "gares_id": 419, "res_com": "METRO 12", "ligne_code": "METRO 12-112077", "nom_iv": "Lamarck-Caulaincourt"}},{"type": "Feature", "geometry": {"coordinates": [-1.361177356837376, -5.981380392058336], "type": "Point"}, "properties": {"geo_point_2d": [-5.981380392058336, -1.3611773568373764], "y": 379.47583543, "id_ref_zdl": 44210, "indice_lig": "12", "x": 327.0509208, "idrefliga": "A01545", "nom_gare": "NOTRE-DAME DE LORETTE", "mode": "METRO", "gares_id": 600, "res_com": "METRO 12", "ligne_code": "METRO 12-112069", "nom_iv": "Notre-Dame-de-Lorette"}},{"type": "Feature", "geometry": {"coordinates": [-1.361035890614811, -5.981363892824121], "type": "Point"}, "properties": {"geo_point_2d": [-5.981363892824121, -1.361035890614811], "y": 380.86352539, "id_ref_zdl": 43233, "indice_lig": "4", "x": 349.86968994, "idrefliga": "A01537", "nom_gare": "GARE DU NORD", "mode": "METRO", "gares_id": 318, "res_com": "METRO 4", "ligne_code": "METRO 4-384", "nom_iv": "Gare du Nord"}},{"type": "Feature", "geometry": {"coordinates": [-1.36107007508053, -5.981453153602245], "type": "Point"}, "properties": {"geo_point_2d": [-5.981453153602245, -1.36107007508053], "y": 366.87750244, "id_ref_zdl": 43656, "indice_lig": "7", "x": 343.60089111, "idrefliga": "A01540", "nom_gare": "LE PELLETIER", "mode": "METRO", "gares_id": 443, "res_com": "METRO 7", "ligne_code": "METRO 7-107051", "nom_iv": "Le Pelletier"}},{"type": "Feature", "geometry": {"coordinates": [-1.361308906032898, -5.981570815459125], "type": "Point"}, "properties": {"geo_point_2d": [-5.981570815459125, -1.361308906032898], "y": 350.15864827, "id_ref_zdl": 43511, "indice_lig": "13", "x": 304.28232859, "idrefliga": "A01546", "nom_gare": "MIROMESNIL", "mode": "METRO", "gares_id": 548, "res_com": "METRO 13", "ligne_code": "METRO 13-114059", "nom_iv": "Miromesnil"}},{"type": "Feature", "geometry": {"coordinates": [-1.360726774308538, -5.981271796151653], "type": "Point"}, "properties": {"geo_point_2d": [-5.981271796151653, -1.3607267743085383], "y": 392.86730957, "id_ref_zdl": 44643, "indice_lig": "7", "x": 400.22631836, "idrefliga": "A01540", "nom_gare": "RIQUET", "mode": "METRO", "gares_id": 739, "res_com": "METRO 7", "ligne_code": "METRO 7-107037", "nom_iv": "Riquet"}},{"type": "Feature", "geometry": {"coordinates": [-1.36056340131352, -5.981266892151347], "type": "Point"}, "properties": {"geo_point_2d": [-5.981266892151347, -1.3605634013135197], "y": 392.20489502, "id_ref_zdl": 44227, "indice_lig": "5", "x": 426.45330811, "idrefliga": "A01538", "nom_gare": "OURCQ", "mode": "METRO", "gares_id": 614, "res_com": "METRO 5", "ligne_code": "METRO 5-105049", "nom_iv": "Ourcq"}},{"type": "Feature", "geometry": {"coordinates": [-1.360648918211487, -5.981318483100438], "type": "Point"}, "properties": {"geo_point_2d": [-5.981318483100438, -1.3606489182114874], "y": 384.70391846, "id_ref_zdl": 45609, "indice_lig": "7b", "x": 412.29107666, "idrefliga": "A01550", "nom_gare": "BUTTES CHAUMONT", "mode": "METRO", "gares_id": 120, "res_com": "METRO 7bis", "ligne_code": "METRO 7bis-117035", "nom_iv": "Buttes Chaumont"}},{"type": "Feature", "geometry": {"coordinates": [-1.360601903963658, -5.981403769024724], "type": "Point"}, "properties": {"geo_point_2d": [-5.981403769024724, -1.3606019039636579], "y": 370.6348877, "id_ref_zdl": 43483, "indice_lig": "11", "x": 419.07128906, "idrefliga": "A01544", "nom_gare": "JOURDAIN", "mode": "METRO", "gares_id": 379, "res_com": "METRO 11", "ligne_code": "METRO 11-111041", "nom_iv": "Jourdain"}},{"type": "Feature", "geometry": {"coordinates": [-1.360469593858243, -5.981560674902766], "type": "Point"}, "properties": {"geo_point_2d": [-5.981560674902766, -1.3604695938582434], "y": 344.3453373, "id_ref_zdl": 44510, "indice_lig": "3", "x": 438.8881304, "idrefliga": "A01536", "nom_gare": "PORTE DE BAGNOLET", "mode": "METRO", "gares_id": 684, "res_com": "METRO 3", "ligne_code": "METRO 3-103035", "nom_iv": "Pte de Bagnolet"}},{"type": "Feature", "geometry": {"coordinates": [-1.360868062319468, -5.981691964140926], "type": "Point"}, "properties": {"geo_point_2d": [-5.981691964140926, -1.3608680623194676], "y": 326.85888672, "id_ref_zdl": 415851, "indice_lig": "11", "x": 373.8638916, "idrefliga": "A01544", "nom_gare": "H\u00d4TEL DE VILLE", "mode": "METRO", "gares_id": 353, "res_com": "METRO 11", "ligne_code": "METRO 11-101051", "nom_iv": "H\u00f4tel de Ville"}},{"type": "Feature", "geometry": {"coordinates": [-1.360749021752421, -5.981767718038058], "type": "Point"}, "properties": {"geo_point_2d": [-5.981767718038058, -1.3607490217524214], "y": 313.67763272, "id_ref_zdl": 42288, "indice_lig": "1", "x": 392.27220225, "idrefliga": "A01534", "nom_gare": "BASTILLE", "mode": "METRO", "gares_id": 54, "res_com": "METRO 1", "ligne_code": "METRO 1-105071", "nom_iv": "Bastille"}},{"type": "Feature", "geometry": {"coordinates": [-1.361182517313295, -5.981990823218206], "type": "Point"}, "properties": {"geo_point_2d": [-5.981990823218206, -1.3611825173132948], "y": 281.80379859, "id_ref_zdl": 42874, "indice_lig": "10", "x": 320.82141516, "idrefliga": "A01543", "nom_gare": "DUROC", "mode": "METRO", "gares_id": 246, "res_com": "METRO 10", "ligne_code": "METRO 10-114049", "nom_iv": "Duroc"}},{"type": "Feature", "geometry": {"coordinates": [-1.360765442586809, -5.981728875502471], "type": "Point"}, "properties": {"geo_point_2d": [-5.981728875502471, -1.3607654425868092], "y": 320.04089356, "id_ref_zdl": 45097, "indice_lig": "8", "x": 389.98413086, "idrefliga": "A01541", "nom_gare": "CHEMIN VERT", "mode": "METRO", "gares_id": 180, "res_com": "METRO 8", "ligne_code": "METRO 8-108057", "nom_iv": "Chemin Vert"}},{"type": "Feature", "geometry": {"coordinates": [-1.361436358678414, -5.981535522981742], "type": "Point"}, "properties": {"geo_point_2d": [-5.981535522981742, -1.3614363586784135], "y": 356.93761129, "id_ref_zdl": 42771, "indice_lig": "2", "x": 284.16803195, "idrefliga": "A01535", "nom_gare": "COURCELLES", "mode": "METRO", "gares_id": 218, "res_com": "METRO 2", "ligne_code": "METRO 2-102073", "nom_iv": "Courcelles"}},{"type": "Feature", "geometry": {"coordinates": [-1.36118933610572, -5.982277582376815], "type": "Point"}, "properties": {"geo_point_2d": [-5.982277582376815, -1.3611893361057201], "y": 235.9594766, "id_ref_zdl": 43285, "indice_lig": "3A", "x": 317.19062328, "idrefliga": "A01193", "nom_gare": "GEORGES BRASSENS", "mode": "TRAM", "gares_id": 981, "res_com": "TRAM 3a", "ligne_code": "TRAM 3a-1304", "nom_iv": "Georges Brassens"}},{"type": "Feature", "geometry": {"coordinates": [-1.361067452981546, -5.982270817208325], "type": "Point"}, "properties": {"geo_point_2d": [-5.982270817208325, -1.3610674529815463], "y": 235.96247729, "id_ref_zdl": 42847, "indice_lig": "3A", "x": 336.78475686, "idrefliga": "A01193", "nom_gare": "DIDOT", "mode": "TRAM", "gares_id": 984, "res_com": "TRAM 3a", "ligne_code": "TRAM 3a-1307", "nom_iv": "Didot"}},{"type": "Feature", "geometry": {"coordinates": [-1.361318864353875, -5.981995732085947], "type": "Point"}, "properties": {"geo_point_2d": [-5.981995732085947, -1.3613188643538754], "y": 282.22607422, "id_ref_zdl": 42871, "indice_lig": "6", "x": 298.92547607, "idrefliga": "A01539", "nom_gare": "DUPLEIX", "mode": "METRO", "gares_id": 245, "res_com": "METRO 6", "ligne_code": "METRO 6-106073", "nom_iv": "Dupleix"}},{"type": "Feature", "geometry": {"coordinates": [-1.36119532437095, -5.981925290418213], "type": "Point"}, "properties": {"geo_point_2d": [-5.981925290418213, -1.3611953243709496], "y": 292.40783867, "id_ref_zdl": 42885, "indice_lig": "8", "x": 319.34875374, "idrefliga": "A01541", "nom_gare": "ECOLE MILITAIRE", "mode": "METRO", "gares_id": 248, "res_com": "METRO 8", "ligne_code": "METRO 8-108031", "nom_iv": "Ecole Militaire"}},{"type": "Feature", "geometry": {"coordinates": [-1.361093509952553, -5.982139320562975], "type": "Point"}, "properties": {"geo_point_2d": [-5.982139320562975, -1.3610935099525525], "y": 257.24353027, "id_ref_zdl": 45313, "indice_lig": "6", "x": 333.77227783, "idrefliga": "A01539", "nom_gare": "EDGAR QUINET", "mode": "METRO", "gares_id": 250, "res_com": "METRO 6", "ligne_code": "METRO 6-106061", "nom_iv": "Edgar Quinet"}},{"type": "Feature", "geometry": {"coordinates": [-1.361492506114232, -5.982105774538424], "type": "Point"}, "properties": {"geo_point_2d": [-5.982105774538424, -1.3614925061142322], "y": 266.14911262, "id_ref_zdl": 42947, "indice_lig": "10", "x": 270.12198435, "idrefliga": "A01543", "nom_gare": "EGLISE D'AUTEUIL", "mode": "METRO", "gares_id": 251, "res_com": "METRO 10", "ligne_code": "METRO 10-110029", "nom_iv": "Eglise d'Auteuil"}},{"type": "Feature", "geometry": {"coordinates": [-1.36095612703982, -5.9816024629992], "type": "Point"}, "properties": {"geo_point_2d": [-5.9816024629991995, -1.3609561270398198], "y": 341.96647728, "id_ref_zdl": 44970, "indice_lig": "4", "x": 360.54207091, "idrefliga": "A01537", "nom_gare": "ETIENNE MARCEL", "mode": "METRO", "gares_id": 273, "res_com": "METRO 4", "ligne_code": "METRO 4-104049", "nom_iv": "Etienne Marcel"}},{"type": "Feature", "geometry": {"coordinates": [-1.361362708410795, -5.981497799169129], "type": "Point"}, "properties": {"geo_point_2d": [-5.981497799169129, -1.3613627084107949], "y": 362.32364669, "id_ref_zdl": 42972, "indice_lig": "3", "x": 296.30580923, "idrefliga": "A01536", "nom_gare": "EUROPE", "mode": "METRO", "gares_id": 275, "res_com": "METRO 3", "ligne_code": "METRO 3-103065", "nom_iv": "Europe"}},{"type": "Feature", "geometry": {"coordinates": [-1.361319537457199, -5.982150828365024], "type": "Point"}, "properties": {"geo_point_2d": [-5.9821508283650235, -1.3613195374571991], "y": 257.40411377, "id_ref_zdl": 42984, "indice_lig": "8", "x": 297.44488525, "idrefliga": "A01541", "nom_gare": "F\u00c9LIX FAURE", "mode": "METRO", "gares_id": 282, "res_com": "METRO 8", "ligne_code": "METRO 8-108025", "nom_iv": "F\u00e9lix Faure"}},{"type": "Feature", "geometry": {"coordinates": [-1.361107892840034, -5.982163888149808], "type": "Point"}, "properties": {"geo_point_2d": [-5.982163888149808, -1.3611078928400344], "y": 253.43809652, "id_ref_zdl": 43046, "indice_lig": "13", "x": 331.24982763, "idrefliga": "A01546", "nom_gare": "GA\u00ceT\u00c9", "mode": "METRO", "gares_id": 299, "res_com": "METRO 13", "ligne_code": "METRO 13-114045", "nom_iv": "Ga\u00eet\u00e9"}},{"type": "Feature", "geometry": {"coordinates": [-1.361237667792546, -5.982068517156079], "type": "Point"}, "properties": {"geo_point_2d": [-5.982068517156079, -1.3612376677925457], "y": 269.85510254, "id_ref_zdl": 44829, "indice_lig": "6", "x": 311.29467773, "idrefliga": "A01539", "nom_gare": "S\u00c8VRES-LECOURBE", "mode": "METRO", "gares_id": 800, "res_com": "METRO 6", "ligne_code": "METRO 6-106067", "nom_iv": "S\u00e8vres-lecourbe"}},{"type": "Feature", "geometry": {"coordinates": [-1.361112847616256, -5.98196431588148], "type": "Point"}, "properties": {"geo_point_2d": [-5.98196431588148, -1.3611128476162562], "y": 285.4296875, "id_ref_zdl": 45116, "indice_lig": "10", "x": 332.22192383, "idrefliga": "A01543", "nom_gare": "VANEAU", "mode": "METRO", "gares_id": 871, "res_com": "METRO 10", "ligne_code": "METRO 10-110053", "nom_iv": "Vaneau"}},{"type": "Feature", "geometry": {"coordinates": [-1.36123996994503, -5.982175882957143], "type": "Point"}, "properties": {"geo_point_2d": [-5.982175882957143, -1.3612399699450302], "y": 252.68835295, "id_ref_zdl": 44995, "indice_lig": "12", "x": 309.97553106, "idrefliga": "A01545", "nom_gare": "VAUGIRARD", "mode": "METRO", "gares_id": 877, "res_com": "METRO 12", "ligne_code": "METRO 12-112039", "nom_iv": "Vaugirard"}},{"type": "Feature", "geometry": {"coordinates": [-1.361033748687463, -5.982102889258615], "type": "Point"}, "properties": {"geo_point_2d": [-5.982102889258615, -1.361033748687463], "y": 262.54589844, "id_ref_zdl": 44997, "indice_lig": "4", "x": 343.67272949, "idrefliga": "A01537", "nom_gare": "VAVIN", "mode": "METRO", "gares_id": 879, "res_com": "METRO 4", "ligne_code": "METRO 4-104069", "nom_iv": "Vavin"}},{"type": "Feature", "geometry": {"coordinates": [-1.360683816002838, -5.98166397298941], "type": "Point"}, "properties": {"geo_point_2d": [-5.98166397298941, -1.3606838160028378], "y": 329.70727539, "id_ref_zdl": 45065, "indice_lig": "9", "x": 403.64068604, "idrefliga": "A01542", "nom_gare": "VOLTAIRE", "mode": "METRO", "gares_id": 920, "res_com": "METRO 9", "ligne_code": "METRO 9-109075", "nom_iv": "Voltaire"}},{"type": "Feature", "geometry": {"coordinates": [-1.361234227644398, -5.982280088235218], "type": "Point"}, "properties": {"geo_point_2d": [-5.982280088235218, -1.3612342276443978], "y": 235.95625294, "id_ref_zdl": 49515, "indice_lig": "3A", "x": 309.97362359, "idrefliga": "A01193", "nom_gare": "PORTE DE VERSAILLES", "mode": "TRAM", "gares_id": 999, "res_com": "TRAM 3a", "ligne_code": "TRAM 3a-112035", "nom_iv": "Pte de Versailles"}},{"type": "Feature", "geometry": {"coordinates": [-1.360960184935852, -5.982211124463564], "type": "Point"}, "properties": {"geo_point_2d": [-5.982211124463564, -1.360960184935852], "y": 244.56779713, "id_ref_zdl": 42175, "indice_lig": "4", "x": 354.50485335, "idrefliga": "A01537", "nom_gare": "AL\u00c9SIA", "mode": "METRO", "gares_id": 10, "res_com": "METRO 4", "ligne_code": "METRO 4-104077", "nom_iv": "Al\u00e9sia"}},{"type": "Feature", "geometry": {"coordinates": [-1.363210603999237, -5.981538428212853], "type": "Point"}, "properties": {"nom_gare": "VERNON", "mode": "TRAIN", "geo_point_2d": [-5.981538428212853, -1.3632106039992369], "gares_id": 1031, "res_com": "GL", "ligne_code": "GRD LIGNES-480", "y": 372.1978919, "id_ref_zdl": 59038, "nom_iv": "Vernon", "indice_lig": "GL", "x": -0.21446236}},{"type": "Feature", "geometry": {"coordinates": [-1.363086247431364, -5.98343760941271], "type": "Point"}, "properties": {"nom_gare": "CHARTRES", "mode": "TRAIN", "geo_point_2d": [-5.98343760941271, -1.3630862474313636], "gares_id": 1025, "res_com": "GL", "ligne_code": "GRD LIGNES-474", "y": 67.07177249, "id_ref_zdl": 411507, "nom_iv": "Chartres", "indice_lig": "GL", "x": 2.8998977}},{"type": "Feature", "geometry": {"coordinates": [-1.358860910600836, -5.983375599730046], "type": "Point"}, "properties": {"nom_gare": "CHAMPIGNY-SUR-YONNE", "mode": "TRAIN", "geo_point_2d": [-5.983375599730046, -1.3588609106008358], "gares_id": 1039, "res_com": "GL", "ligne_code": "GRD LIGNES-488", "y": 39.55933433, "id_ref_zdl": 411461, "nom_iv": "Champigny-sur-Yonne", "indice_lig": "GL", "x": 680.65647787}},{"type": "Feature", "geometry": {"coordinates": [-1.358860910600836, -5.983375599730046], "type": "Point"}, "properties": {"nom_gare": "CEZY", "mode": "TRAIN", "geo_point_2d": [-5.983375599730046, -1.3588609106008358], "gares_id": 1044, "res_com": "GL", "ligne_code": "GRD LIGNES-493", "y": 39.55933433, "id_ref_zdl": 411470, "nom_iv": "Cezy", "indice_lig": "GL", "x": 680.65647787}},{"type": "Feature", "geometry": {"coordinates": [-1.358860910600836, -5.983375599730046], "type": "Point"}, "properties": {"nom_gare": "JOIGNY", "mode": "TRAIN", "geo_point_2d": [-5.983375599730046, -1.3588609106008358], "gares_id": 1045, "res_com": "GL", "ligne_code": "GRD LIGNES-494", "y": 39.55933433, "id_ref_zdl": 411467, "nom_iv": "Joigny", "indice_lig": "GL", "x": 680.65647787}},{"type": "Feature", "geometry": {"coordinates": [-1.363160962669332, -5.982056690189731], "type": "Point"}, "properties": {"nom_gare": "GILLES-GUAINVILLE", "mode": "TRAIN", "geo_point_2d": [-5.982056690189731, -1.363160962669332], "gares_id": 1022, "res_com": "GL", "ligne_code": "GRD LIGNES-471", "y": 288.79457105, "id_ref_zdl": 411354, "nom_iv": "Gilles-Guainville", "indice_lig": "GL", "x": 3.15258602}},{"type": "Feature", "geometry": {"coordinates": [-1.363086247431364, -5.98343760941271], "type": "Point"}, "properties": {"nom_gare": "EPERNON", "mode": "TRAIN", "geo_point_2d": [-5.98343760941271, -1.3630862474313636], "gares_id": 1026, "res_com": "GL", "ligne_code": "GRD LIGNES-475", "y": 67.07177249, "id_ref_zdl": 411511, "nom_iv": "Epernon", "indice_lig": "GL", "x": 2.8998977}},{"type": "Feature", "geometry": {"coordinates": [-1.363086247431364, -5.98343760941271], "type": "Point"}, "properties": {"nom_gare": "MAINTENON", "mode": "TRAIN", "geo_point_2d": [-5.98343760941271, -1.3630862474313636], "gares_id": 1027, "res_com": "GL", "ligne_code": "GRD LIGNES-476", "y": 67.07177249, "id_ref_zdl": 59302, "nom_iv": "Maintenon", "indice_lig": "GL", "x": 2.8998977}},{"type": "Feature", "geometry": {"coordinates": [-1.361220486819394, -5.98355824537533], "type": "Point"}, "properties": {"geo_point_2d": [-5.98355824537533, -1.3612204868193944], "y": 31.22366098, "id_ref_zdl": 43080, "indice_lig": "C", "x": 300.86330761, "idrefliga": "A01840", "nom_gare": "ETAMPES", "mode": "RER", "gares_id": 271, "res_com": "RER C", "ligne_code": "RER C-190", "nom_iv": "Etampes"}},{"type": "Feature", "geometry": {"coordinates": [-1.361190886136069, -5.983525592165426], "type": "Point"}, "properties": {"geo_point_2d": [-5.983525592165426, -1.361190886136069], "y": 36.18853275, "id_ref_zdl": 43081, "indice_lig": "C", "x": 305.89661293, "idrefliga": "A01840", "nom_gare": "ETRECHY", "mode": "RER", "gares_id": 274, "res_com": "RER C", "ligne_code": "RER C-189", "nom_iv": "Etrechy"}},{"type": "Feature", "geometry": {"coordinates": [-1.360453921871414, -5.98184508101906], "type": "Point"}, "properties": {"geo_point_2d": [-5.98184508101906, -1.3604539218714145], "y": 298.67870768, "id_ref_zdl": 44528, "terminus": "TRAM  3b", "indice_lig": "3B", "x": 438.88321961, "idrefliga": "A01757", "nom_gare": "PORTE DE VINCENNES", "mode": "TRAM", "gares_id": 1098, "res_com": "TRAM 3b", "ligne_code": "TRAM 3b-101039", "nom_iv": "Pte de Vincennes"}},{"type": "Feature", "geometry": {"coordinates": [-1.360471740620874, -5.981521724324921], "type": "Point"}, "properties": {"geo_point_2d": [-5.981521724324921, -1.3604717406208742], "y": 350.59950942, "id_ref_zdl": 45629, "indice_lig": "3B", "x": 438.88877719, "idrefliga": "A01757", "nom_gare": "S\u00c9VERINE", "mode": "TRAM", "gares_id": 1094, "res_com": "TRAM 3b", "ligne_code": "TRAM 3b-1602", "nom_iv": "S\u00e9verine"}},{"type": "Feature", "geometry": {"coordinates": [-1.360555952075498, -5.981174712572047], "type": "Point"}, "properties": {"geo_point_2d": [-5.981174712572047, -1.3605559520754984], "y": 406.89501075, "id_ref_zdl": 58499, "indice_lig": "3B", "x": 428.46292991, "idrefliga": "A01757", "nom_gare": "ELLA FITZGERALD", "mode": "TRAM", "gares_id": 1109, "res_com": "TRAM 3b", "ligne_code": "TRAM 3b-1607", "nom_iv": "Ella Fitzgerald"}},{"type": "Feature", "geometry": {"coordinates": [-1.360768508391163, -5.981192913576888], "type": "Point"}, "properties": {"geo_point_2d": [-5.981192913576888, -1.3607685083911634], "y": 412.71361455, "id_ref_zdl": 58498, "indice_lig": "3B", "x": 397.3568155, "idrefliga": "A01757", "nom_gare": "ROSA PARKS", "mode": "TRAM", "gares_id": 1112, "res_com": "TRAM 3b", "ligne_code": "TRAM 3b-1609", "nom_iv": "Rosa Parks"}},{"type": "Feature", "geometry": {"coordinates": [-1.360886096572645, -5.981156447446422], "type": "Point"}, "properties": {"geo_point_2d": [-5.981156447446422, -1.3608860965726455], "y": 412.71521706, "id_ref_zdl": 45538, "indice_lig": "3B", "x": 382.38567751, "idrefliga": "A01757", "nom_gare": "COLETTE BESSON", "mode": "TRAM", "gares_id": 1114, "res_com": "TRAM 3b", "ligne_code": "TRAM 3b-1611", "nom_iv": "Colette Besson"}},{"type": "Feature", "geometry": {"coordinates": [-1.360445764994295, -5.981992865129314], "type": "Point"}, "properties": {"geo_point_2d": [-5.981992865129314, -1.3604457649942947], "y": 274.94914271, "id_ref_zdl": 44532, "indice_lig": "3A", "x": 438.88277624, "idrefliga": "A01193", "nom_gare": "PORTE DOR\u00c9E", "mode": "TRAM", "gares_id": 1101, "res_com": "TRAM 3a", "ligne_code": "TRAM 3a-108073", "nom_iv": "Pte Dor\u00e9e"}},{"type": "Feature", "geometry": {"coordinates": [-1.361366660352821, -5.980799368490065], "type": "Point"}, "properties": {"geo_point_2d": [-5.980799368490065, -1.3613666603528212], "y": 474.16263281, "id_ref_zdl": 44252, "indice_lig": "1", "x": 301.85395727, "idrefliga": "A01191", "nom_gare": "PARC DES CHANTERAINES", "mode": "TRAM", "gares_id": 1078, "res_com": "TRAM 1", "ligne_code": "TRAM 1-1030", "nom_iv": "Parc des Chanteraines"}},{"type": "Feature", "geometry": {"coordinates": [-1.36131443616385, -5.980796483723673], "type": "Point"}, "properties": {"geo_point_2d": [-5.980796483723673, -1.3613144361638503], "y": 474.16149982, "id_ref_zdl": 42594, "indice_lig": "1", "x": 310.24937118, "idrefliga": "A01191", "nom_gare": "CHEMIN DES RENIERS", "mode": "TRAM", "gares_id": 1077, "res_com": "TRAM 1", "ligne_code": "TRAM 1-1029", "nom_iv": "Chemin des Reniers"}},{"type": "Feature", "geometry": {"coordinates": [-1.361255430189023, -5.980793225118754], "type": "Point"}, "properties": {"geo_point_2d": [-5.980793225118754, -1.3612554301890234], "y": 474.16025014, "id_ref_zdl": 47355, "indice_lig": "1", "x": 319.73495857, "idrefliga": "A01191", "nom_gare": "LA NOUE", "mode": "TRAM", "gares_id": 1076, "res_com": "TRAM 1", "ligne_code": "TRAM 1-1028", "nom_iv": "La Noue"}},{"type": "Feature", "geometry": {"coordinates": [-1.362097343957458, -5.981121843882402], "type": "Point"}, "properties": {"geo_point_2d": [-5.981121843882402, -1.3620973439574577], "y": 429.01648539, "id_ref_zdl": 58495, "indice_lig": "2", "x": 181.89427281, "idrefliga": "A01192", "nom_gare": "JACQUELINE AURIOL", "mode": "TRAM", "gares_id": 1089, "res_com": "TRAM 2", "ligne_code": "TRAM 2-1508", "nom_iv": "Jacqueline Auriol"}},{"type": "Feature", "geometry": {"coordinates": [-1.361946445198373, -5.98130188689708], "type": "Point"}, "properties": {"geo_point_2d": [-5.9813018868970795, -1.361946445198373], "y": 398.85809374, "id_ref_zdl": 58496, "indice_lig": "2", "x": 204.48496303, "idrefliga": "A01192", "nom_gare": "FAUBOURG DE L'ARCHE", "mode": "TRAM", "gares_id": 1086, "res_com": "TRAM 2", "ligne_code": "TRAM 2-1505", "nom_iv": "Faubourg de l'Arche"}},{"type": "Feature", "geometry": {"coordinates": [-1.361424081251966, -5.980802538291102], "type": "Point"}, "properties": {"geo_point_2d": [-5.980802538291102, -1.3614240812519662], "y": 474.16385522, "id_ref_zdl": 46450, "indice_lig": "1", "x": 292.62310303, "idrefliga": "A01191", "nom_gare": "GENNEVILLIERS", "mode": "TRAM", "gares_id": 1084, "res_com": "TRAM 1", "ligne_code": "TRAM 1-428", "nom_iv": "Gennevilliers"}},{"type": "Feature", "geometry": {"coordinates": [-1.361196733164489, -5.981831174713387], "type": "Point"}, "properties": {"geo_point_2d": [-5.9818311747133865, -1.3611967331644894], "y": 307.48647625, "id_ref_zdl": 43407, "indice_lig": "8", "x": 319.95591555, "idrefliga": "A01541", "nom_gare": "INVALIDES", "mode": "METRO", "gares_id": 363, "res_com": "METRO 8", "ligne_code": "METRO 8-312", "nom_iv": "Invalides"}},{"type": "Feature", "geometry": {"coordinates": [-1.361039803124308, -5.981708592661938], "type": "Point"}, "properties": {"geo_point_2d": [-5.9817085926619376, -1.3610398031243083], "y": 325.71868897, "id_ref_zdl": 44645, "indice_lig": "1", "x": 346.19189453, "idrefliga": "A01534", "nom_gare": "LOUVRE-RIVOLI", "mode": "METRO", "gares_id": 481, "res_com": "METRO 1", "ligne_code": "METRO 1-101055", "nom_iv": "Louvre-Rivoli"}},{"type": "Feature", "geometry": {"coordinates": [-1.361231040110078, -5.981675793416855], "type": "Point"}, "properties": {"geo_point_2d": [-5.981675793416855, -1.3612310401100784], "y": 332.66378584, "id_ref_zdl": 43898, "indice_lig": "8", "x": 315.83273029, "idrefliga": "A01541", "nom_gare": "MADELEINE", "mode": "METRO", "gares_id": 489, "res_com": "METRO 8", "ligne_code": "METRO 8-108039", "nom_iv": "Madeleine"}},{"type": "Feature", "geometry": {"coordinates": [-1.360891864404806, -5.981885467817373], "type": "Point"}, "properties": {"geo_point_2d": [-5.981885467817373, -1.360891864404806], "y": 296.09368897, "id_ref_zdl": 44119, "indice_lig": "10", "x": 368.33673096, "idrefliga": "A01543", "nom_gare": "MAUBERT-MUTUALIT\u00c9", "mode": "METRO", "gares_id": 525, "res_com": "METRO 10", "ligne_code": "METRO 10-110061", "nom_iv": "Maubert-Mutualit\u00e9"}},{"type": "Feature", "geometry": {"coordinates": [-1.360588936588336, -5.981913472819185], "type": "Point"}, "properties": {"geo_point_2d": [-5.981913472819185, -1.3605889365883361], "y": 288.92669678, "id_ref_zdl": 44160, "indice_lig": "8", "x": 416.63909912, "idrefliga": "A01541", "nom_gare": "MONTGALLET", "mode": "METRO", "gares_id": 555, "res_com": "METRO 8", "ligne_code": "METRO 8-108067", "nom_iv": "Montgallet"}},{"type": "Feature", "geometry": {"coordinates": [-1.361077872969421, -5.982052809503417], "type": "Point"}, "properties": {"geo_point_2d": [-5.982052809503417, -1.3610778729694206], "y": 270.95375769, "id_ref_zdl": 44211, "indice_lig": "12", "x": 337.04420096, "idrefliga": "A01545", "nom_gare": "NOTRE-DAME DES CHAMPS", "mode": "METRO", "gares_id": 601, "res_com": "METRO 12", "ligne_code": "METRO 12-112049", "nom_iv": "Notre-Dame-Des-Champs"}},{"type": "Feature", "geometry": {"coordinates": [-1.36071422969552, -5.981554426686849], "type": "Point"}, "properties": {"geo_point_2d": [-5.981554426686849, -1.3607142296955201], "y": 347.51287842, "id_ref_zdl": 58725, "indice_lig": "3", "x": 399.73571777, "idrefliga": "A01536", "nom_gare": "PARMENTIER", "mode": "METRO", "gares_id": 625, "res_com": "METRO 3", "ligne_code": "METRO 3-103043", "nom_iv": "Parmentier"}},{"type": "Feature", "geometry": {"coordinates": [-1.361106436566509, -5.982190308181328], "type": "Point"}, "properties": {"geo_point_2d": [-5.982190308181328, -1.3611064365665086], "y": 249.19601405, "id_ref_zdl": 44316, "indice_lig": "13", "x": 331.24946864, "idrefliga": "A01546", "nom_gare": "PERNETY", "mode": "METRO", "gares_id": 636, "res_com": "METRO 13", "ligne_code": "METRO 13-114043", "nom_iv": "Pernety"}},{"type": "Feature", "geometry": {"coordinates": [-1.3604864060338, -5.981397389402752], "type": "Point"}, "properties": {"geo_point_2d": [-5.981397389402752, -1.3604864060338], "y": 370.63296243, "id_ref_zdl": 44529, "indice_lig": "11", "x": 437.6385915, "idrefliga": "A01544", "nom_gare": "PORTE DES LILAS", "mode": "METRO", "gares_id": 697, "res_com": "METRO 11", "ligne_code": "METRO 11-111035", "nom_iv": "Pte des Lilas"}},{"type": "Feature", "geometry": {"coordinates": [-1.361102999108208, -5.981583058751758], "type": "Point"}, "properties": {"geo_point_2d": [-5.981583058751758, -1.3611029991082084], "y": 346.37408447, "id_ref_zdl": 44587, "indice_lig": "3", "x": 337.17449951, "idrefliga": "A01536", "nom_gare": "QUATRE SEPTEMBRE", "mode": "METRO", "gares_id": 719, "res_com": "METRO 3", "ligne_code": "METRO 3-103057", "nom_iv": "Quatre Septembre"}},{"type": "Feature", "geometry": {"coordinates": [-1.361028580547058, -5.981866536972111], "type": "Point"}, "properties": {"geo_point_2d": [-5.981866536972111, -1.361028580547058], "y": 300.33551025, "id_ref_zdl": 44799, "indice_lig": "4", "x": 346.5927124, "idrefliga": "A01537", "nom_gare": "SAINT-GERMAIN-DES-PR\u00c9S", "mode": "METRO", "gares_id": 767, "res_com": "METRO 4", "ligne_code": "METRO 4-104061", "nom_iv": "St-Germain-Des-Pr\u00e9s"}},{"type": "Feature", "geometry": {"coordinates": [-1.360904279423424, -5.982128866392552], "type": "Point"}, "properties": {"geo_point_2d": [-5.982128866392552, -1.360904279423424], "y": 257.24029541, "id_ref_zdl": 45315, "indice_lig": "6", "x": 364.19287109, "idrefliga": "A01539", "nom_gare": "SAINT-JACQUES", "mode": "METRO", "gares_id": 768, "res_com": "METRO 6", "ligne_code": "METRO 6-106055", "nom_iv": "St-Jacques"}},{"type": "Feature", "geometry": {"coordinates": [-1.360601559364456, -5.982098768475165], "type": "Point"}, "properties": {"geo_point_2d": [-5.982098768475165, -1.3606015593644556], "y": 259.37636275, "id_ref_zdl": 45301, "indice_lig": "14", "x": 412.97640573, "idrefliga": "A01547", "nom_gare": "BIBLIOTH\u00c8QUE FRAN\u00c7OIS MITTERAND", "mode": "METRO", "gares_id": 72, "res_com": "METRO 14", "ligne_code": "METRO 14-383", "nom_iv": "Biblioth\u00e8que F. Mitterand"}},{"type": "Feature", "geometry": {"coordinates": [-1.360526814450593, -5.981788005767179], "type": "Point"}, "properties": {"geo_point_2d": [-5.981788005767179, -1.3605268144505933], "y": 308.46122364, "id_ref_zdl": 42410, "indice_lig": "9", "x": 427.70582227, "idrefliga": "A01542", "nom_gare": "BUZENVAL", "mode": "METRO", "gares_id": 121, "res_com": "METRO 9", "ligne_code": "METRO 9-109083", "nom_iv": "Buzenval"}},{"type": "Feature", "geometry": {"coordinates": [-1.360878648478901, -5.980759614589756], "type": "Point"}, "properties": {"geo_point_2d": [-5.980759614589756, -1.360878648478901], "y": 476.2021697, "id_ref_zdl": 44095, "terminus": "TRAM  5", "indice_lig": "5", "x": 380.41842008, "idrefliga": "A01760", "nom_gare": "MARCH\u00c9 DE SAINT-DENIS", "mode": "TRAM", "gares_id": 1133, "res_com": "TRAM 5", "ligne_code": "TRAM 5-1002", "nom_iv": "March\u00e9 de St-Denis"}},{"type": "Feature", "geometry": {"coordinates": [-1.36072681659458, -5.980373568230524], "type": "Point"}, "properties": {"geo_point_2d": [-5.980373568230524, -1.3607268165945803], "y": 536.65414562, "id_ref_zdl": 59018, "indice_lig": "5", "x": 408.16833341, "idrefliga": "A01760", "nom_gare": "LES CHOLETTES", "mode": "TRAM", "gares_id": 1122, "res_com": "TRAM 5", "ligne_code": "TRAM 5-1513", "nom_iv": "Les Cholettes"}},{"type": "Feature", "geometry": {"coordinates": [-1.360845793771695, -5.982757410663719], "type": "Point"}, "properties": {"geo_point_2d": [-5.982757410663719, -1.3608457937716951], "y": 156.10384554, "id_ref_zdl": 58784, "indice_lig": "7", "x": 368.00394235, "idrefliga": "A02134", "nom_gare": "AUGUSTE PERRET", "mode": "TRAM", "gares_id": 1147, "res_com": "TRAM 7", "ligne_code": "TRAM 7-1816", "nom_iv": "Auguste Perret"}},{"type": "Feature", "geometry": {"coordinates": [-1.360311747827763, -5.982779840152832], "type": "Point"}, "properties": {"geo_point_2d": [-5.982779840152832, -1.3603117478277627], "y": 149.92783539, "id_ref_zdl": 46286, "indice_lig": "D", "x": 453.39829567, "idrefliga": "A01842", "nom_gare": "CRETEIL POMPADOUR", "mode": "RER", "gares_id": 1159, "res_com": "RER D", "ligne_code": "RER D-520", "nom_iv": "Creteil Pompadour"}},{"type": "Feature", "geometry": {"coordinates": [-1.361365845604295, -5.982752864751289], "type": "Point"}, "properties": {"geo_point_2d": [-5.982752864751289, -1.3613658456042954], "y": 161.4395891, "id_ref_zdl": 423879, "indice_lig": "6", "x": 284.69458045, "idrefliga": "A02149", "nom_gare": "H\u00d4PITAL B\u00c9CL\u00c8RE", "mode": "TRAM", "gares_id": 1166, "res_com": "TRAM 6", "ligne_code": "TRAM 6-117053", "nom_iv": "H\u00f4pital B\u00e9cl\u00e8re"}},{"type": "Feature", "geometry": {"coordinates": [-1.361493630935874, -5.982807351683367], "type": "Point"}, "properties": {"geo_point_2d": [-5.982807351683367, -1.3614936309358736], "y": 153.84951964, "id_ref_zdl": 50800, "indice_lig": "6", "x": 263.73206549, "idrefliga": "A02149", "nom_gare": "GEORGES POMPIDOU", "mode": "TRAM", "gares_id": 1169, "res_com": "TRAM 6", "ligne_code": "TRAM 6-117050", "nom_iv": "Georges Pompidou"}},{"type": "Feature", "geometry": {"coordinates": [-1.361642773467206, -5.982824870514429], "type": "Point"}, "properties": {"geo_point_2d": [-5.982824870514429, -1.361642773467206], "y": 152.36681547, "id_ref_zdl": 59053, "indice_lig": "6", "x": 239.67356779, "idrefliga": "A02149", "nom_gare": "V\u00c9LIZY 2", "mode": "TRAM", "gares_id": 1172, "res_com": "TRAM 6", "ligne_code": "TRAM 6-117047", "nom_iv": "V\u00e9lizy 2"}},{"type": "Feature", "geometry": {"coordinates": [-1.361663354175958, -5.982847882337101], "type": "Point"}, "properties": {"geo_point_2d": [-5.982847882337101, -1.361663354175958], "y": 148.86537118, "id_ref_zdl": 42846, "indice_lig": "6", "x": 236.17137383, "idrefliga": "A02149", "nom_gare": "DEWOITINE", "mode": "TRAM", "gares_id": 1173, "res_com": "TRAM 6", "ligne_code": "TRAM 6-117046", "nom_iv": "Dewoitine"}},